{
"type": "FeatureCollection",
"features": [
{
  "type": "Feature",
  "id": "node/15352046",
  "properties": {
    "version": "5",
    "name": "Balatonboglár",
    "source": "survey",
    "traffic_sign": "city_limit",
    "id": "node/15352046"
  },
  "geometry": {
    "type": "Point",
    "coordinates": [
      17.6333146,
      46.7713702
    ]
  }
},
{
  "type": "Feature",
  "id": "node/16737507",
  "properties": {
    "version": "5",
    "ref": "90",
    "name": "Balatonfüred Enying",
    "highway": "motorway_junction",
    "id": "node/16737507"
  },
  "geometry": {
    "type": "Point",
    "coordinates": [
      18.213949,
      47.0014699
    ]
  }
},
{
  "type": "Feature",
  "id": "node/25871288",
  "properties": {
    "version": "9",
    "name": "Balatonudvari",
    "place": "village",
    "ksh_ref": "15565",
    "population": "301",
    "postal_code": "8242",
    "source:population": "KSH (www.ksh.hu)",
    "source:postal_code": "Magyar Posta (posta.hu)",
    "source:population:date": "2016-01-01",
    "source:postal_code:date": "2009-03-01",
    "id": "node/25871288"
  },
  "geometry": {
    "type": "Point",
    "coordinates": [
      17.8048202,
      46.9054215
    ]
  }
},
{
  "type": "Feature",
  "id": "node/26612056",
  "properties": {
    "version": "13",
    "name": "Balatonakali",
    "place": "village",
    "ksh_ref": "25308",
    "name:ru": "Балатонакали",
    "population": "624",
    "postal_code": "8243",
    "source:population": "KSH (www.ksh.hu)",
    "source:postal_code": "Magyar Posta (posta.hu)",
    "source:population:date": "2016-01-01",
    "source:postal_code:date": "2009-03-01",
    "id": "node/26612056"
  },
  "geometry": {
    "type": "Point",
    "coordinates": [
      17.7518613,
      46.8830854
    ]
  }
},
{
  "type": "Feature",
  "id": "node/27313526",
  "properties": {
    "version": "12",
    "name": "Balatonfőkajár",
    "place": "village",
    "ksh_ref": "29461",
    "name:ru": "Балатонфёкайяр",
    "population": "1291",
    "postal_code": "8164",
    "source:population": "KSH (www.ksh.hu)",
    "source:postal_code": "A Magyar Köztársaság Helységnévtára, 2009",
    "source:population:date": "2016-01-01",
    "id": "node/27313526"
  },
  "geometry": {
    "type": "Point",
    "coordinates": [
      18.2122159,
      47.0202933
    ]
  }
},
{
  "type": "Feature",
  "id": "node/33122622",
  "properties": {
    "version": "5",
    "name": "Balatonszentgyörgy",
    "railway": "station",
    "ref:mav": "3617",
    "id": "node/33122622"
  },
  "geometry": {
    "type": "Point",
    "coordinates": [
      17.2887861,
      46.692403
    ]
  }
},
{
  "type": "Feature",
  "id": "node/33122966",
  "properties": {
    "version": "6",
    "name": "Balatonberény",
    "railway": "halt",
    "ref:mav": "3616",
    "id": "node/33122966"
  },
  "geometry": {
    "type": "Point",
    "coordinates": [
      17.3167109,
      46.7136524
    ]
  }
},
{
  "type": "Feature",
  "id": "node/33122978",
  "properties": {
    "version": "8",
    "name": "Balatonmáriafürdő elágazás",
    "railway": "switch",
    "id": "node/33122978"
  },
  "geometry": {
    "type": "Point",
    "coordinates": [
      17.3635169,
      46.7056421
    ]
  }
},
{
  "type": "Feature",
  "id": "node/33123126",
  "properties": {
    "version": "5",
    "name": "Balatonfenyves",
    "railway": "station",
    "ref:mav": "3613",
    "id": "node/33123126"
  },
  "geometry": {
    "type": "Point",
    "coordinates": [
      17.4827951,
      46.7134339
    ]
  }
},
{
  "type": "Feature",
  "id": "node/33123282",
  "properties": {
    "version": "5",
    "name": "Balatonboglár",
    "train": "yes",
    "railway": "station",
    "ref:mav": "3608",
    "public_transport": "station",
    "id": "node/33123282"
  },
  "geometry": {
    "type": "Point",
    "coordinates": [
      17.6471745,
      46.7760797
    ]
  }
},
{
  "type": "Feature",
  "id": "node/33123428",
  "properties": {
    "version": "7",
    "name": "Balatonlelle",
    "train": "yes",
    "railway": "station",
    "ref:mav": "3606",
    "public_transport": "station",
    "id": "node/33123428"
  },
  "geometry": {
    "type": "Point",
    "coordinates": [
      17.694259,
      46.7874032
    ]
  }
},
{
  "type": "Feature",
  "id": "node/33123450",
  "properties": {
    "version": "5",
    "name": "Balatonlelle felső",
    "railway": "station",
    "ref:mav": "3605",
    "id": "node/33123450"
  },
  "geometry": {
    "type": "Point",
    "coordinates": [
      17.7205812,
      46.7948759
    ]
  }
},
{
  "type": "Feature",
  "id": "node/33123460",
  "properties": {
    "version": "7",
    "name": "Balatonszemes",
    "train": "yes",
    "ref:mav": "3604",
    "local_ref": "2",
    "public_transport": "stop_position",
    "id": "node/33123460"
  },
  "geometry": {
    "type": "Point",
    "coordinates": [
      17.7770725,
      46.8121857
    ]
  }
},
{
  "type": "Feature",
  "id": "node/33123468",
  "properties": {
    "version": "7",
    "name": "Balatonszárszó",
    "train": "yes",
    "ref:mav": "3394",
    "local_ref": "2",
    "public_transport": "stop_position",
    "id": "node/33123468"
  },
  "geometry": {
    "type": "Point",
    "coordinates": [
      17.8304252,
      46.8321448
    ]
  }
},
{
  "type": "Feature",
  "id": "node/33123473",
  "properties": {
    "version": "7",
    "name": "Balatonföldvár",
    "train": "yes",
    "railway": "station",
    "ref:mav": "3393",
    "wheelchair": "no",
    "public_transport": "station",
    "id": "node/33123473"
  },
  "geometry": {
    "type": "Point",
    "coordinates": [
      17.8799757,
      46.8534022
    ]
  }
},
{
  "type": "Feature",
  "id": "node/33123799",
  "properties": {
    "version": "7",
    "name": "Balatonszéplak felső",
    "ref:mav": "1625",
    "operator": "MÁV-Start",
    "public_transport": "stop_position",
    "id": "node/33123799"
  },
  "geometry": {
    "type": "Point",
    "coordinates": [
      18.0156028,
      46.8973096
    ]
  }
},
{
  "type": "Feature",
  "id": "node/33130065",
  "properties": {
    "version": "13",
    "fax": "+36 83 200 301",
    "ref": "SOB",
    "iata": "SOB",
    "icao": "LHSM",
    "name": "Hévíz-Balaton Airport",
    "email": "info@hevizairport.com",
    "phone": "+36 83 200 300",
    "aeroway": "aerodrome",
    "name:hu": "Hévíz-Balaton nemzetközi repülőtér",
    "website": "http://www.hevizairport.com/",
    "old_name": "FlyBalaton",
    "operator": "Hévíz-Balaton Airport Kft.",
    "wikidata": "Q1187044",
    "addr:city": "Sármellék",
    "wikipedia": "hu:Hévíz-Balaton nemzetközi repülőtér",
    "addr:street": "Repülőtér",
    "source:name": "http://hu.wikipedia.org/wiki/S%C3%A1rmell%C3%A9k_nemzetk%C3%B6zi_rep%C3%BCl%C5%91t%C3%A9r",
    "addr:postcode": "8391",
    "addr:housenumber": "1",
    "official_name:hu": "Hévíz-Balaton nemzetközi repülőtér",
    "id": "node/33130065"
  },
  "geometry": {
    "type": "Point",
    "coordinates": [
      17.1597236,
      46.6962854
    ]
  }
},
{
  "type": "Feature",
  "id": "node/60732176",
  "properties": {
    "version": "10",
    "ref": "4",
    "name": "BALATON Nagykanizsa Budapest",
    "highway": "motorway_junction",
    "id": "node/60732176"
  },
  "geometry": {
    "type": "Point",
    "coordinates": [
      18.8924977,
      47.4368176
    ]
  }
},
{
  "type": "Feature",
  "id": "node/60733638",
  "properties": {
    "version": "12",
    "ref": "4",
    "name": "BALATON Nagykanizsa Budapest",
    "highway": "motorway_junction",
    "id": "node/60733638"
  },
  "geometry": {
    "type": "Point",
    "coordinates": [
      18.8993792,
      47.4273015
    ]
  }
},
{
  "type": "Feature",
  "id": "node/61086267",
  "properties": {
    "version": "3",
    "name": "Balatonfőkajár felső",
    "railway": "halt",
    "ref:mav": "2012",
    "id": "node/61086267"
  },
  "geometry": {
    "type": "Point",
    "coordinates": [
      18.2157168,
      47.0314197
    ]
  }
},
{
  "type": "Feature",
  "id": "node/61086296",
  "properties": {
    "version": "6",
    "name": "Balatonakarattya",
    "railway": "halt",
    "ref:mav": "1671",
    "operator": "MÁV",
    "id": "node/61086296"
  },
  "geometry": {
    "type": "Point",
    "coordinates": [
      18.1677398,
      47.0172714
    ]
  }
},
{
  "type": "Feature",
  "id": "node/71258469",
  "properties": {
    "version": "15",
    "ref": "170",
    "name": "Balatonkeresztúr Balatonszentgyörgy",
    "highway": "motorway_junction",
    "id": "node/71258469"
  },
  "geometry": {
    "type": "Point",
    "coordinates": [
      17.3525898,
      46.6726877
    ]
  }
},
{
  "type": "Feature",
  "id": "node/77855845",
  "properties": {
    "version": "8",
    "name": "Balatonalmádi-Káptalanfüred",
    "traffic_sign": "city_limit",
    "id": "node/77855845"
  },
  "geometry": {
    "type": "Point",
    "coordinates": [
      18.0026775,
      47.007199
    ]
  }
},
{
  "type": "Feature",
  "id": "node/77881793",
  "properties": {
    "version": "9",
    "name": "Csittényhegy",
    "railway": "halt",
    "ref:mav": "1672",
    "old_name": "Balatonkenese-Üdülőtelep",
    "id": "node/77881793"
  },
  "geometry": {
    "type": "Point",
    "coordinates": [
      18.1375433,
      47.0252743
    ]
  }
},
{
  "type": "Feature",
  "id": "node/78245652",
  "properties": {
    "version": "9",
    "name": "Balatonrendes",
    "railway": "halt",
    "ref:mav": "1690",
    "id": "node/78245652"
  },
  "geometry": {
    "type": "Point",
    "coordinates": [
      17.5835467,
      46.8252121
    ]
  }
},
{
  "type": "Feature",
  "id": "node/80221117",
  "properties": {
    "version": "8",
    "name": "Balatonszepezd",
    "name:ru": "Балатонсепезд",
    "railway": "halt",
    "ref:mav": "1687",
    "id": "node/80221117"
  },
  "geometry": {
    "type": "Point",
    "coordinates": [
      17.6631305,
      46.8511065
    ]
  }
},
{
  "type": "Feature",
  "id": "node/80221134",
  "properties": {
    "version": "10",
    "name": "Balatonakali-Dörgicse",
    "railway": "station",
    "ref:mav": "1685",
    "old_name": "Dörgicse-Akali",
    "wheelchair": "yes",
    "id": "node/80221134"
  },
  "geometry": {
    "type": "Point",
    "coordinates": [
      17.7478992,
      46.8796704
    ]
  }
},
{
  "type": "Feature",
  "id": "node/80221147",
  "properties": {
    "version": "10",
    "name": "Balatonudvari",
    "railway": "halt",
    "ref:mav": "1683",
    "id": "node/80221147"
  },
  "geometry": {
    "type": "Point",
    "coordinates": [
      17.8078946,
      46.904714
    ]
  }
},
{
  "type": "Feature",
  "id": "node/80221174",
  "properties": {
    "version": "9",
    "name": "Balatonfüred",
    "name:de": "Bad Plattensee",
    "name:fa": "بالاتنفورد",
    "name:hr": "Balatonfured",
    "name:lt": "Balatonfiuredas",
    "name:ru": "Балатонфюред",
    "name:sr": "Балатонфиред",
    "name:zh": "巴拉頓菲賴德",
    "railway": "station",
    "ref:mav": "1680",
    "platforms": "5",
    "wheelchair": "yes",
    "id": "node/80221174"
  },
  "geometry": {
    "type": "Point",
    "coordinates": [
      17.8832266,
      46.9563417
    ]
  }
},
{
  "type": "Feature",
  "id": "node/80221180",
  "properties": {
    "version": "8",
    "name": "Balatonarács",
    "railway": "halt",
    "ref:mav": "1679",
    "id": "node/80221180"
  },
  "geometry": {
    "type": "Point",
    "coordinates": [
      17.8977089,
      46.9625814
    ]
  }
},
{
  "type": "Feature",
  "id": "node/80221200",
  "properties": {
    "version": "10",
    "ref": "2",
    "name": "Balatonalmádi",
    "train": "yes",
    "railway": "station",
    "ref:mav": "1675",
    "public_transport": "stop_position",
    "id": "node/80221200"
  },
  "geometry": {
    "type": "Point",
    "coordinates": [
      18.0150774,
      47.0282866
    ]
  }
},
{
  "type": "Feature",
  "id": "node/80221206",
  "properties": {
    "version": "8",
    "name": "Balatonkenese",
    "train": "yes",
    "railway": "station",
    "ref:mav": "1673",
    "wheelchair": "limited",
    "public_transport": "station",
    "toilets:wheelchair": "yes",
    "id": "node/80221206"
  },
  "geometry": {
    "type": "Point",
    "coordinates": [
      18.1060134,
      47.0324051
    ]
  }
},
{
  "type": "Feature",
  "id": "node/92311451",
  "properties": {
    "version": "7",
    "name": "Balatonaliga",
    "train": "yes",
    "railway": "stop",
    "ref:mav": "842",
    "operator": "MÁV",
    "local_ref": "2",
    "public_transport": "stop_position",
    "id": "node/92311451"
  },
  "geometry": {
    "type": "Point",
    "coordinates": [
      18.1708754,
      46.9844158
    ]
  }
},
{
  "type": "Feature",
  "id": "node/92752079",
  "properties": {
    "version": "6",
    "name": "Balatonszentgyörgy elágazás",
    "railway": "junction",
    "id": "node/92752079"
  },
  "geometry": {
    "type": "Point",
    "coordinates": [
      17.2574266,
      46.702018
    ]
  }
},
{
  "type": "Feature",
  "id": "node/92752269",
  "properties": {
    "version": "5",
    "name": "Balatongyörök",
    "railway": "station",
    "ref:mav": "2497",
    "id": "node/92752269"
  },
  "geometry": {
    "type": "Point",
    "coordinates": [
      17.3542121,
      46.7518677
    ]
  }
},
{
  "type": "Feature",
  "id": "node/92752370",
  "properties": {
    "version": "4",
    "name": "Balatonederics",
    "railway": "station",
    "ref:mav": "2499",
    "id": "node/92752370"
  },
  "geometry": {
    "type": "Point",
    "coordinates": [
      17.3851274,
      46.802627
    ]
  }
},
{
  "type": "Feature",
  "id": "node/151345540",
  "properties": {
    "version": "6",
    "ele": "470",
    "name": "Balaton",
    "place": "village",
    "gnis:id": "639591",
    "name:ru": "Балатон",
    "wikidata": "Q1878003",
    "wikipedia": "en:Balaton, Minnesota",
    "population": "619",
    "gnis:County": "Lyon",
    "gnis:ST_num": "27",
    "import_uuid": "bb7269ee-502a-5391-8056-e3ce0e66489c",
    "gnis:ST_alpha": "MN",
    "gnis:County_num": "083",
    "census:population": "619;2006",
    "id": "node/151345540"
  },
  "geometry": {
    "type": "Point",
    "coordinates": [
      -95.872242,
      44.233296
    ]
  }
},
{
  "type": "Feature",
  "id": "node/158384714",
  "properties": {
    "version": "14",
    "ref": "90",
    "name": "Balatonfüred Enying",
    "highway": "motorway_junction",
    "id": "node/158384714"
  },
  "geometry": {
    "type": "Point",
    "coordinates": [
      18.1837294,
      46.9885442
    ]
  }
},
{
  "type": "Feature",
  "id": "node/158398910",
  "properties": {
    "version": "13",
    "ref": "135",
    "name": "Balatonszemes Balatonlelle",
    "highway": "motorway_junction",
    "id": "node/158398910"
  },
  "geometry": {
    "type": "Point",
    "coordinates": [
      17.7506993,
      46.792136
    ]
  }
},
{
  "type": "Feature",
  "id": "node/244526181",
  "properties": {
    "version": "12",
    "name": "Balatonendréd",
    "place": "village",
    "ksh_ref": "19460",
    "population": "1297",
    "postal_code": "8613",
    "source:population": "KSH (www.ksh.hu)",
    "source:postal_code": "Magyar Posta (posta.hu)",
    "source:population:date": "2016-01-01",
    "source:postal_code:date": "2009-03-01",
    "id": "node/244526181"
  },
  "geometry": {
    "type": "Point",
    "coordinates": [
      17.9765942,
      46.8362401
    ]
  }
},
{
  "type": "Feature",
  "id": "node/244526361",
  "properties": {
    "version": "14",
    "name": "Balatonföldvár",
    "place": "town",
    "ksh_ref": "07117",
    "name:ru": "Балатонсарсо",
    "wikidata": "Q789282",
    "wikipedia": "hu:Balatonföldvár",
    "population": "2150",
    "postal_code": "8623",
    "source:population": "KSH (www.ksh.hu)",
    "source:postal_code": "Magyar Posta (posta.hu)",
    "source:population:date": "2016-01-01",
    "source:postal_code:date": "2009-03-01",
    "id": "node/244526361"
  },
  "geometry": {
    "type": "Point",
    "coordinates": [
      17.8792403,
      46.8491197
    ]
  }
},
{
  "type": "Feature",
  "id": "node/244526446",
  "properties": {
    "version": "12",
    "name": "Balatonszemes",
    "place": "village",
    "ksh_ref": "22822",
    "name:ru": "Балатонсемеш",
    "population": "1743",
    "postal_code": "8636",
    "source:population": "KSH (www.ksh.hu)",
    "source:postal_code": "Magyar Posta (posta.hu)",
    "source:population:date": "2016-01-01",
    "source:postal_code:date": "2009-03-01",
    "id": "node/244526446"
  },
  "geometry": {
    "type": "Point",
    "coordinates": [
      17.7789908,
      46.806042
    ]
  }
},
{
  "type": "Feature",
  "id": "node/244526742",
  "properties": {
    "version": "13",
    "name": "Balatonőszöd",
    "place": "village",
    "ksh_ref": "11916",
    "population": "479",
    "postal_code": "8637",
    "source:population": "KSH (www.ksh.hu)",
    "source:postal_code": "Magyar Posta (posta.hu)",
    "source:population:date": "2016-01-01",
    "source:postal_code:date": "2009-03-01",
    "id": "node/244526742"
  },
  "geometry": {
    "type": "Point",
    "coordinates": [
      17.8002219,
      46.8069464
    ]
  }
},
{
  "type": "Feature",
  "id": "node/244526749",
  "properties": {
    "version": "13",
    "name": "Balatonlelle",
    "place": "town",
    "ksh_ref": "33862",
    "wikidata": "Q789299",
    "wikipedia": "hu:Balatonlelle",
    "population": "5235",
    "postal_code": "8638",
    "source:population": "KSH (www.ksh.hu)",
    "source:postal_code": "Magyar Posta (posta.hu)",
    "source:population:date": "2016-01-01",
    "source:postal_code:date": "2009-03-01",
    "id": "node/244526749"
  },
  "geometry": {
    "type": "Point",
    "coordinates": [
      17.6965209,
      46.7867617
    ]
  }
},
{
  "type": "Feature",
  "id": "node/244526775",
  "properties": {
    "version": "16",
    "name": "Balatonboglár",
    "place": "town",
    "ksh_ref": "33853",
    "name:ru": "Балатонглар",
    "wikidata": "Q789261",
    "wikipedia": "hu:Balatonboglár",
    "population": "5673",
    "postal_code": "8630",
    "source:population": "KSH (www.ksh.hu)",
    "source:postal_code": "Magyar Posta (posta.hu)",
    "source:population:date": "2016-01-01",
    "source:postal_code:date": "2009-03-01",
    "id": "node/244526775"
  },
  "geometry": {
    "type": "Point",
    "coordinates": [
      17.6553063,
      46.7785548
    ]
  }
},
{
  "type": "Feature",
  "id": "node/244527458",
  "properties": {
    "version": "8",
    "name": "Balatonfenyves",
    "place": "village",
    "ksh_ref": "20729",
    "population": "1803",
    "postal_code": "8646",
    "source:population": "KSH (www.ksh.hu)",
    "source:postal_code": "Magyar Posta (posta.hu)",
    "source:population:date": "2016-01-01",
    "source:postal_code:date": "2009-03-01",
    "id": "node/244527458"
  },
  "geometry": {
    "type": "Point",
    "coordinates": [
      17.4945314,
      46.7176727
    ]
  }
},
{
  "type": "Feature",
  "id": "node/244527527",
  "properties": {
    "version": "9",
    "name": "Balatonmáriafürdő",
    "place": "village",
    "ksh_ref": "14562",
    "name:de": "Marienbad",
    "population": "694",
    "postal_code": "8647",
    "source:population": "KSH (www.ksh.hu)",
    "source:postal_code": "Magyar Posta (posta.hu)",
    "source:population:date": "2016-01-01",
    "source:postal_code:date": "2009-03-01",
    "id": "node/244527527"
  },
  "geometry": {
    "type": "Point",
    "coordinates": [
      17.4074991,
      46.7015468
    ]
  }
},
{
  "type": "Feature",
  "id": "node/244527555",
  "properties": {
    "version": "10",
    "name": "Balatonberény",
    "place": "village",
    "ksh_ref": "27377",
    "name:ru": "Балатонкерестур",
    "population": "1087",
    "postal_code": "8649",
    "source:population": "KSH (www.ksh.hu)",
    "source:postal_code": "Magyar Posta (posta.hu)",
    "source:population:date": "2016-01-01",
    "source:postal_code:date": "2009-03-01",
    "id": "node/244527555"
  },
  "geometry": {
    "type": "Point",
    "coordinates": [
      17.3193203,
      46.710836
    ]
  }
},
{
  "type": "Feature",
  "id": "node/244527567",
  "properties": {
    "version": "14",
    "name": "Balatonszentgyörgy",
    "place": "village",
    "ksh_ref": "21324",
    "name:de": "St. Georgen am Plattensee",
    "name:ru": "Балатонсентдьёрдь",
    "population": "1556",
    "postal_code": "8710",
    "source:population": "KSH (www.ksh.hu)",
    "source:postal_code": "Magyar Posta (posta.hu)",
    "source:population:date": "2016-01-01",
    "source:postal_code:date": "2009-03-01",
    "id": "node/244527567"
  },
  "geometry": {
    "type": "Point",
    "coordinates": [
      17.2999871,
      46.6921957
    ]
  }
},
{
  "type": "Feature",
  "id": "node/244527648",
  "properties": {
    "version": "10",
    "name": "Balatonújlak",
    "place": "village",
    "ksh_ref": "16470",
    "population": "458",
    "postal_code": "8712",
    "source:population": "KSH (www.ksh.hu)",
    "source:postal_code": "Magyar Posta (posta.hu)",
    "source:population:date": "2016-01-01",
    "source:postal_code:date": "2009-03-01",
    "id": "node/244527648"
  },
  "geometry": {
    "type": "Point",
    "coordinates": [
      17.383049,
      46.6759752
    ]
  }
},
{
  "type": "Feature",
  "id": "node/244527884",
  "properties": {
    "version": "12",
    "name": "Balatonkeresztúr",
    "place": "village",
    "ksh_ref": "07375",
    "name:ru": "Балатонкерестур",
    "population": "1471",
    "postal_code": "8648",
    "source:population": "KSH (www.ksh.hu)",
    "source:postal_code": "Magyar Posta (posta.hu)",
    "source:population:date": "2016-01-01",
    "source:postal_code:date": "2009-03-01",
    "id": "node/244527884"
  },
  "geometry": {
    "type": "Point",
    "coordinates": [
      17.3704438,
      46.6976457
    ]
  }
},
{
  "type": "Feature",
  "id": "node/244531045",
  "properties": {
    "version": "15",
    "name": "Balatongyörök",
    "place": "village",
    "ksh_ref": "17002",
    "name:ru": "Балатондьёрёк",
    "wikidata": "Q596991",
    "wikipedia": "hu:Balatongyörök",
    "population": "1020",
    "postal_code": "8313",
    "source:population": "KSH (www.ksh.hu)",
    "source:postal_code": "Magyar Posta (posta.hu)",
    "source:population:date": "2016-01-01",
    "source:postal_code:date": "2009-03-01",
    "id": "node/244531045"
  },
  "geometry": {
    "type": "Point",
    "coordinates": [
      17.3504857,
      46.7616172
    ]
  }
},
{
  "type": "Feature",
  "id": "node/244531158",
  "properties": {
    "version": "10",
    "name": "Balatonederics",
    "place": "village",
    "ksh_ref": "12238",
    "name:ru": "Балатондерич",
    "population": "994",
    "postal_code": "8312",
    "source:population": "KSH (www.ksh.hu)",
    "source:postal_code": "Magyar Posta (posta.hu)",
    "source:population:date": "2016-01-01",
    "source:postal_code:date": "2009-03-01",
    "id": "node/244531158"
  },
  "geometry": {
    "type": "Point",
    "coordinates": [
      17.3813106,
      46.8091396
    ]
  }
},
{
  "type": "Feature",
  "id": "node/244531352",
  "properties": {
    "version": "11",
    "name": "Balatonrendes",
    "place": "village",
    "ksh_ref": "33844",
    "population": "124",
    "postal_code": "8255",
    "source:population": "KSH (www.ksh.hu)",
    "source:postal_code": "Magyar Posta (posta.hu)",
    "source:population:date": "2016-01-01",
    "source:postal_code:date": "2009-03-01",
    "id": "node/244531352"
  },
  "geometry": {
    "type": "Point",
    "coordinates": [
      17.5857978,
      46.8273773
    ]
  }
},
{
  "type": "Feature",
  "id": "node/244531467",
  "properties": {
    "version": "11",
    "name": "Balatonszepezd",
    "place": "village",
    "ksh_ref": "17154",
    "name:ru": "Балатонсепезд",
    "population": "377",
    "postal_code": "8252",
    "source:population": "KSH (www.ksh.hu)",
    "source:postal_code": "Magyar Posta (posta.hu)",
    "source:population:date": "2016-01-01",
    "source:postal_code:date": "2009-03-01",
    "id": "node/244531467"
  },
  "geometry": {
    "type": "Point",
    "coordinates": [
      17.6637569,
      46.8518266
    ]
  }
},
{
  "type": "Feature",
  "id": "node/244531781",
  "properties": {
    "version": "13",
    "name": "Balatonalmádi",
    "place": "town",
    "ksh_ref": "05838",
    "name:ru": "Балатональмади",
    "wikidata": "Q789256",
    "wikipedia": "hu:Balatonalmádi",
    "population": "8564",
    "short_name": "Almádi",
    "postal_code": "8220",
    "source:population": "KSH (www.ksh.hu)",
    "source:postal_code": "Magyar Posta (posta.hu)",
    "source:population:date": "2016-01-01",
    "source:postal_code:date": "2009-03-01",
    "id": "node/244531781"
  },
  "geometry": {
    "type": "Point",
    "coordinates": [
      18.0200896,
      47.035766
    ]
  }
},
{
  "type": "Feature",
  "id": "node/244531825",
  "properties": {
    "version": "13",
    "name": "Balatonfűzfő",
    "place": "town",
    "ksh_ref": "02219",
    "name:ru": "Балатонфюзфё",
    "wikidata": "Q520531",
    "wikipedia": "hu:Balatonfűzfő",
    "population": "4084",
    "short_name": "Fűzfő",
    "postal_code": "8175",
    "source:population": "KSH (www.ksh.hu)",
    "source:postal_code": "Magyar Posta (posta.hu)",
    "source:population:date": "2016-01-01",
    "source:postal_code:date": "2009-03-01",
    "id": "node/244531825"
  },
  "geometry": {
    "type": "Point",
    "coordinates": [
      18.0409677,
      47.0620043
    ]
  }
},
{
  "type": "Feature",
  "id": "node/244531904",
  "properties": {
    "version": "16",
    "name": "Balatonkenese",
    "place": "town",
    "ksh_ref": "05148",
    "name:ru": "Балатонкенеше",
    "wikidata": "Q646115",
    "wikipedia": "hu:Balatonkenese",
    "population": "2554",
    "short_name": "Kenese",
    "postal_code": "8174",
    "source:population": "KSH (www.ksh.hu)",
    "source:postal_code": "Magyar Posta (posta.hu)",
    "source:population:date": "2016-01-01",
    "source:postal_code:date": "2009-03-01",
    "id": "node/244531904"
  },
  "geometry": {
    "type": "Point",
    "coordinates": [
      18.1079681,
      47.0349778
    ]
  }
},
{
  "type": "Feature",
  "id": "node/244531914",
  "properties": {
    "version": "12",
    "name": "Balatonvilágos",
    "place": "village",
    "ksh_ref": "03559",
    "name:ru": "Балатонвилагош",
    "population": "1158",
    "postal_code": "8171",
    "source:population": "KSH (www.ksh.hu)",
    "source:postal_code": "A Magyar Köztársaság Helységnévtára, 2009",
    "source:population:date": "2016-01-01",
    "id": "node/244531914"
  },
  "geometry": {
    "type": "Point",
    "coordinates": [
      18.159314,
      46.9641731
    ]
  }
},
{
  "type": "Feature",
  "id": "node/259703662",
  "properties": {
    "version": "6",
    "name": "Balatonboglár - Szőlőskislak",
    "traffic_sign": "city_limit",
    "id": "node/259703662"
  },
  "geometry": {
    "type": "Point",
    "coordinates": [
      17.6672199,
      46.736653
    ]
  }
},
{
  "type": "Feature",
  "id": "node/268619837",
  "properties": {
    "version": "14",
    "name": "Balatoni út",
    "tram": "yes",
    "railway": "tram_stop",
    "public_transport": "stop_position",
    "id": "node/268619837"
  },
  "geometry": {
    "type": "Point",
    "coordinates": [
      19.0057241,
      47.4444336
    ]
  }
},
{
  "type": "Feature",
  "id": "node/273126146",
  "properties": {
    "version": "4",
    "name": "Balatonalmádi-Vörösberény",
    "traffic_sign": "city_limit",
    "id": "node/273126146"
  },
  "geometry": {
    "type": "Point",
    "coordinates": [
      18.0138473,
      47.0472936
    ]
  }
},
{
  "type": "Feature",
  "id": "node/283002026",
  "properties": {
    "version": "6",
    "ref": "170",
    "name": "Balatonkeresztúr Balatonszentgyörgy",
    "highway": "motorway_junction",
    "id": "node/283002026"
  },
  "geometry": {
    "type": "Point",
    "coordinates": [
      17.3462622,
      46.669095
    ]
  }
},
{
  "type": "Feature",
  "id": "node/285901432",
  "properties": {
    "version": "9",
    "name": "Balatonszőlős",
    "place": "village",
    "ksh_ref": "28501",
    "population": "634",
    "postal_code": "8230",
    "source:population": "KSH (www.ksh.hu)",
    "source:postal_code": "Magyar Posta (posta.hu)",
    "source:population:date": "2016-01-01",
    "source:postal_code:date": "2009-03-01",
    "id": "node/285901432"
  },
  "geometry": {
    "type": "Point",
    "coordinates": [
      17.8292145,
      46.9673651
    ]
  }
},
{
  "type": "Feature",
  "id": "node/285901638",
  "properties": {
    "version": "13",
    "name": "Balatonakarattya",
    "place": "village",
    "ksh_ref": "34421",
    "population": "831",
    "short_name": "Akarattya",
    "postal_code": "8172",
    "is_in:subregion": "Balatonalmádi",
    "source:population": "KSH (www.ksh.hu)",
    "source:population:date": "2016-01-01",
    "id": "node/285901638"
  },
  "geometry": {
    "type": "Point",
    "coordinates": [
      18.1439403,
      47.0239663
    ]
  }
},
{
  "type": "Feature",
  "id": "node/291043144",
  "properties": {
    "version": "8",
    "ref": "183",
    "name": "Sávoly Balatonring",
    "highway": "motorway_junction",
    "id": "node/291043144"
  },
  "geometry": {
    "type": "Point",
    "coordinates": [
      17.2514681,
      46.5848127
    ]
  }
},
{
  "type": "Feature",
  "id": "node/293216974",
  "properties": {
    "version": "4",
    "ref": "130",
    "name": "Balatonőszöd Szólád",
    "highway": "motorway_junction",
    "id": "node/293216974"
  },
  "geometry": {
    "type": "Point",
    "coordinates": [
      17.8099208,
      46.8011775
    ]
  }
},
{
  "type": "Feature",
  "id": "node/293217821",
  "properties": {
    "version": "5",
    "ref": "126",
    "name": "Balatonszárszó",
    "highway": "motorway_junction",
    "id": "node/293217821"
  },
  "geometry": {
    "type": "Point",
    "coordinates": [
      17.8587368,
      46.8206575
    ]
  }
},
{
  "type": "Feature",
  "id": "node/293218098",
  "properties": {
    "version": "5",
    "ref": "126",
    "name": "Balatonszárszó",
    "highway": "motorway_junction",
    "id": "node/293218098"
  },
  "geometry": {
    "type": "Point",
    "coordinates": [
      17.8548033,
      46.8185091
    ]
  }
},
{
  "type": "Feature",
  "id": "node/293220713",
  "properties": {
    "version": "5",
    "ref": "135",
    "name": "Balatonszemes Balatonlelle",
    "highway": "motorway_junction",
    "id": "node/293220713"
  },
  "geometry": {
    "type": "Point",
    "coordinates": [
      17.7540919,
      46.7930608
    ]
  }
},
{
  "type": "Feature",
  "id": "node/293233381",
  "properties": {
    "version": "7",
    "ref": "138",
    "name": "Balatonlellei pihenőhely",
    "highway": "services",
    "id": "node/293233381"
  },
  "geometry": {
    "type": "Point",
    "coordinates": [
      17.7228838,
      46.7784109
    ]
  }
},
{
  "type": "Feature",
  "id": "node/293234332",
  "properties": {
    "version": "3",
    "ref": "143",
    "name": "Balatonboglár Lengyeltóti",
    "highway": "motorway_junction",
    "id": "node/293234332"
  },
  "geometry": {
    "type": "Point",
    "coordinates": [
      17.668655,
      46.7637995
    ]
  }
},
{
  "type": "Feature",
  "id": "node/293247207",
  "properties": {
    "version": "5",
    "ref": "160",
    "name": "Balatonfenyves Táska",
    "highway": "motorway_junction",
    "id": "node/293247207"
  },
  "geometry": {
    "type": "Point",
    "coordinates": [
      17.4767173,
      46.7022406
    ]
  }
},
{
  "type": "Feature",
  "id": "node/296137465",
  "properties": {
    "version": "15",
    "name": "Balatonfüred",
    "place": "town",
    "ksh_ref": "21175",
    "name:de": "Bad Plattensee",
    "name:fa": "بالاتنفورد",
    "name:hr": "Balatonfured",
    "name:lt": "Balatonfiuredas",
    "name:ru": "Балатонфюред",
    "name:sr": "Балатонфиред",
    "name:zh": "巴拉頓菲賴德",
    "wikidata": "Q680743",
    "wikipedia": "hu:Balatonfüred",
    "population": "13082",
    "postal_code": "8230",
    "source:population": "KSH (www.ksh.hu)",
    "source:postal_code": "Magyar Posta (posta.hu)",
    "source:population:date": "2016-01-01",
    "source:postal_code:date": "2009-03-01",
    "id": "node/296137465"
  },
  "geometry": {
    "type": "Point",
    "coordinates": [
      17.888892,
      46.9567254
    ]
  }
},
{
  "type": "Feature",
  "id": "node/304839946",
  "properties": {
    "version": "4",
    "name": "Balatonszárszó",
    "source": "survey",
    "traffic_sign": "city_limit",
    "id": "node/304839946"
  },
  "geometry": {
    "type": "Point",
    "coordinates": [
      17.8273068,
      46.8247385
    ]
  }
},
{
  "type": "Feature",
  "id": "node/331874080",
  "properties": {
    "version": "5",
    "name": "Balatonalmádi-Káptalanfüred",
    "traffic_sign": "city_limit",
    "id": "node/331874080"
  },
  "geometry": {
    "type": "Point",
    "coordinates": [
      18.0070341,
      47.0168411
    ]
  }
},
{
  "type": "Feature",
  "id": "node/331963482",
  "properties": {
    "version": "2",
    "name": "Balatonszentgyörgy",
    "source": "survey",
    "traffic_sign": "city_limit",
    "id": "node/331963482"
  },
  "geometry": {
    "type": "Point",
    "coordinates": [
      17.3068014,
      46.6918264
    ]
  }
},
{
  "type": "Feature",
  "id": "node/349566484",
  "properties": {
    "version": "1",
    "ele": "468",
    "name": "Balaton Post Office",
    "amenity": "post_office",
    "gnis:created": "03/25/2005",
    "gnis:state_id": "27",
    "gnis:county_id": "083",
    "gnis:feature_id": "2064353",
    "id": "node/349566484"
  },
  "geometry": {
    "type": "Point",
    "coordinates": [
      -95.8716667,
      44.2341667
    ]
  }
},
{
  "type": "Feature",
  "id": "node/353762332",
  "properties": {
    "version": "12",
    "name": "Balatonszabadi",
    "place": "village",
    "ksh_ref": "16601",
    "name:ru": "Балатонсабади",
    "population": "2951",
    "postal_code": "8651",
    "source:population": "KSH (www.ksh.hu)",
    "source:postal_code": "Magyar Posta (posta.hu)",
    "source:population:date": "2016-01-01",
    "source:postal_code:date": "2009-03-01",
    "id": "node/353762332"
  },
  "geometry": {
    "type": "Point",
    "coordinates": [
      18.133571,
      46.8913312
    ]
  }
},
{
  "type": "Feature",
  "id": "node/353954504",
  "properties": {
    "version": "11",
    "name": "Balatonmagyaród",
    "place": "village",
    "ksh_ref": "26462",
    "name:de": "Ungarsdorf am Plattensee",
    "name:ru": "Балатонмадьярод",
    "population": "407",
    "postal_code": "8753",
    "source:population": "KSH (www.ksh.hu)",
    "source:postal_code": "Magyar Posta (posta.hu)",
    "source:population:date": "2016-01-01",
    "source:postal_code:date": "2009-03-01",
    "id": "node/353954504"
  },
  "geometry": {
    "type": "Point",
    "coordinates": [
      17.1752487,
      46.5944343
    ]
  }
},
{
  "type": "Feature",
  "id": "node/367059871",
  "properties": {
    "version": "1",
    "ele": "469",
    "name": "Balaton Fire Department",
    "source": "USGS Geonames",
    "amenity": "fire_station",
    "addr:state": "MN",
    "gnis:reviewed": "no",
    "gnis:feature_id": "2064351",
    "gnis:county_name": "Lyon",
    "gnis:import_uuid": "57871b70-0100-4405-bb30-88b2e001a944",
    "id": "node/367059871"
  },
  "geometry": {
    "type": "Point",
    "coordinates": [
      -95.8719444,
      44.2333333
    ]
  }
},
{
  "type": "Feature",
  "id": "node/367061678",
  "properties": {
    "version": "1",
    "ele": "468",
    "name": "Balaton Library",
    "source": "USGS Geonames",
    "amenity": "library",
    "addr:state": "MN",
    "gnis:reviewed": "no",
    "gnis:feature_id": "2064354",
    "gnis:county_name": "Lyon",
    "gnis:import_uuid": "57871b70-0100-4405-bb30-88b2e001a944",
    "id": "node/367061678"
  },
  "geometry": {
    "type": "Point",
    "coordinates": [
      -95.8716667,
      44.2341667
    ]
  }
},
{
  "type": "Feature",
  "id": "node/367063853",
  "properties": {
    "version": "1",
    "ele": "470",
    "name": "Balaton Police Department",
    "source": "USGS Geonames",
    "amenity": "police",
    "addr:state": "MN",
    "gnis:reviewed": "no",
    "gnis:feature_id": "2064352",
    "gnis:county_name": "Lyon",
    "gnis:import_uuid": "57871b70-0100-4405-bb30-88b2e001a944",
    "id": "node/367063853"
  },
  "geometry": {
    "type": "Point",
    "coordinates": [
      -95.8725,
      44.2338889
    ]
  }
},
{
  "type": "Feature",
  "id": "node/367065915",
  "properties": {
    "version": "1",
    "ele": "468",
    "name": "Balaton City Hall",
    "source": "USGS Geonames",
    "amenity": "townhall",
    "addr:state": "MN",
    "gnis:reviewed": "no",
    "gnis:feature_id": "2064355",
    "gnis:county_name": "Lyon",
    "gnis:import_uuid": "57871b70-0100-4405-bb30-88b2e001a944",
    "id": "node/367065915"
  },
  "geometry": {
    "type": "Point",
    "coordinates": [
      -95.8716667,
      44.2341667
    ]
  }
},
{
  "type": "Feature",
  "id": "node/371157928",
  "properties": {
    "version": "4",
    "name": "Szabadifürdő",
    "railway": "halt",
    "ref:mav": "844",
    "old_name": "Balatonszabadi",
    "id": "node/371157928"
  },
  "geometry": {
    "type": "Point",
    "coordinates": [
      18.1002769,
      46.9244434
    ]
  }
},
{
  "type": "Feature",
  "id": "node/371159922",
  "properties": {
    "version": "5",
    "name": "Balatonakarattya, vá. lejáró út",
    "bench": "yes",
    "highway": "bus_stop",
    "shelter": "no",
    "tactile_paving": "no",
    "public_transport": "platform",
    "id": "node/371159922"
  },
  "geometry": {
    "type": "Point",
    "coordinates": [
      18.164565,
      47.0172604
    ]
  }
},
{
  "type": "Feature",
  "id": "node/371165585",
  "properties": {
    "version": "2",
    "name": "Balatonfűzfő, vasútállomás",
    "highway": "bus_stop",
    "id": "node/371165585"
  },
  "geometry": {
    "type": "Point",
    "coordinates": [
      18.0427054,
      47.0603643
    ]
  }
},
{
  "type": "Feature",
  "id": "node/412130884",
  "properties": {
    "version": "4",
    "ref": "138",
    "name": "Balatonlellei pihenőhely",
    "highway": "services",
    "id": "node/412130884"
  },
  "geometry": {
    "type": "Point",
    "coordinates": [
      17.7186461,
      46.7742807
    ]
  }
},
{
  "type": "Feature",
  "id": "node/412447761",
  "properties": {
    "version": "4",
    "name": "Balatonberény",
    "traffic_sign": "city_limit",
    "id": "node/412447761"
  },
  "geometry": {
    "type": "Point",
    "coordinates": [
      17.31481,
      46.7134872
    ]
  }
},
{
  "type": "Feature",
  "id": "node/430091876",
  "properties": {
    "version": "3",
    "name": "Balatonalmádi",
    "traffic_sign": "city_limit",
    "id": "node/430091876"
  },
  "geometry": {
    "type": "Point",
    "coordinates": [
      17.9931514,
      47.0181165
    ]
  }
},
{
  "type": "Feature",
  "id": "node/436172642",
  "properties": {
    "version": "5",
    "ref": "130",
    "name": "Balatonőszöd Szólád",
    "highway": "motorway_junction",
    "id": "node/436172642"
  },
  "geometry": {
    "type": "Point",
    "coordinates": [
      17.813424,
      46.8035019
    ]
  }
},
{
  "type": "Feature",
  "id": "node/446783731",
  "properties": {
    "version": "3",
    "name": "Balatonlelle üdülőterület",
    "traffic_sign": "city_limit",
    "id": "node/446783731"
  },
  "geometry": {
    "type": "Point",
    "coordinates": [
      17.7250849,
      46.7963038
    ]
  }
},
{
  "type": "Feature",
  "id": "node/455064758",
  "properties": {
    "version": "4",
    "name": "Jókai-kilátó",
    "tourism": "viewpoint",
    "man_made": "tower",
    "tower:type": "observation",
    "description": "3 emelet, 13m magas, kilátás a Balatonra és a környező erdőkre",
    "id": "node/455064758"
  },
  "geometry": {
    "type": "Point",
    "coordinates": [
      17.8814871,
      46.9719156
    ]
  }
},
{
  "type": "Feature",
  "id": "node/477376686",
  "properties": {
    "version": "1",
    "name": "Balaton",
    "shop": "outdoor",
    "id": "node/477376686"
  },
  "geometry": {
    "type": "Point",
    "coordinates": [
      24.0339792,
      49.8711084
    ]
  }
},
{
  "type": "Feature",
  "id": "node/477828393",
  "properties": {
    "version": "5",
    "name": "Balatonfenyves GV",
    "railway": "station",
    "ref:mav": "988",
    "alt_name": "Balatonfenyves",
    "id": "node/477828393"
  },
  "geometry": {
    "type": "Point",
    "coordinates": [
      17.4793088,
      46.7124572
    ]
  }
},
{
  "type": "Feature",
  "id": "node/516450079",
  "properties": {
    "version": "2",
    "name": "Balatonőszöd",
    "traffic_sign": "city_limit",
    "id": "node/516450079"
  },
  "geometry": {
    "type": "Point",
    "coordinates": [
      17.7955291,
      46.806424
    ]
  }
},
{
  "type": "Feature",
  "id": "node/516460067",
  "properties": {
    "version": "5",
    "name": "Balatonszemes",
    "traffic_sign": "city_limit",
    "id": "node/516460067"
  },
  "geometry": {
    "type": "Point",
    "coordinates": [
      17.7877173,
      46.8070734
    ]
  }
},
{
  "type": "Feature",
  "id": "node/540615693",
  "properties": {
    "version": "12",
    "name": "Balaton",
    "place": "village",
    "ksh_ref": "11527",
    "population": "1033",
    "postal_code": "3347",
    "source:population": "KSH (www.ksh.hu)",
    "source:postal_code": "Magyar Posta (posta.hu)",
    "source:population:date": "2016-01-01",
    "source:postal_code:date": "2009-03-01",
    "id": "node/540615693"
  },
  "geometry": {
    "type": "Point",
    "coordinates": [
      20.3060574,
      48.0944507
    ]
  }
},
{
  "type": "Feature",
  "id": "node/678436922",
  "properties": {
    "version": "5",
    "name": "Balatonvilágos",
    "railway": "station",
    "ref:mav": "843",
    "wheelchair": "yes",
    "id": "node/678436922"
  },
  "geometry": {
    "type": "Point",
    "coordinates": [
      18.1577071,
      46.9639554
    ]
  }
},
{
  "type": "Feature",
  "id": "node/685325618",
  "properties": {
    "version": "3",
    "ref": "143",
    "name": "Balatonboglár Lengyeltóti",
    "highway": "motorway_junction",
    "id": "node/685325618"
  },
  "geometry": {
    "type": "Point",
    "coordinates": [
      17.6652829,
      46.7633812
    ]
  }
},
{
  "type": "Feature",
  "id": "node/685325899",
  "properties": {
    "version": "2",
    "ref": "123",
    "name": "Balatonföldvár Bálványos",
    "highway": "motorway_junction",
    "id": "node/685325899"
  },
  "geometry": {
    "type": "Point",
    "coordinates": [
      17.9253032,
      46.8185231
    ]
  }
},
{
  "type": "Feature",
  "id": "node/685325955",
  "properties": {
    "version": "4",
    "ref": "114",
    "name": "Balatonendréd Zamárdi-alsó",
    "highway": "motorway_junction",
    "id": "node/685325955"
  },
  "geometry": {
    "type": "Point",
    "coordinates": [
      17.9616389,
      46.8551805
    ]
  }
},
{
  "type": "Feature",
  "id": "node/685325993",
  "properties": {
    "version": "2",
    "ref": "114",
    "name": "Balatonendréd Zamárdi-alsó",
    "highway": "motorway_junction",
    "id": "node/685325993"
  },
  "geometry": {
    "type": "Point",
    "coordinates": [
      17.9663093,
      46.863839
    ]
  }
},
{
  "type": "Feature",
  "id": "node/685490876",
  "properties": {
    "version": "3",
    "ref": "183",
    "name": "Sávoly Balatonring",
    "highway": "motorway_junction",
    "id": "node/685490876"
  },
  "geometry": {
    "type": "Point",
    "coordinates": [
      17.2512051,
      46.5882488
    ]
  }
},
{
  "type": "Feature",
  "id": "node/700172804",
  "properties": {
    "version": "8",
    "name": "Balatoni út",
    "tram": "yes",
    "railway": "tram_stop",
    "public_transport": "stop_position",
    "id": "node/700172804"
  },
  "geometry": {
    "type": "Point",
    "coordinates": [
      19.0054024,
      47.4445693
    ]
  }
},
{
  "type": "Feature",
  "id": "node/706545880",
  "properties": {
    "version": "9",
    "name": "Balatonhenye",
    "place": "village",
    "ksh_ref": "03638",
    "population": "130",
    "postal_code": "8275",
    "source:population": "KSH (www.ksh.hu)",
    "source:postal_code": "A Magyar Köztársaság Helységnévtára, 2009",
    "source:population:date": "2016-01-01",
    "id": "node/706545880"
  },
  "geometry": {
    "type": "Point",
    "coordinates": [
      17.6155343,
      46.9119705
    ]
  }
},
{
  "type": "Feature",
  "id": "node/706545890",
  "properties": {
    "version": "11",
    "name": "Balatoncsicsó",
    "place": "village",
    "ksh_ref": "03072",
    "name:de": "Schitzenhofen",
    "population": "223",
    "postal_code": "8272",
    "source:population": "KSH (www.ksh.hu)",
    "source:postal_code": "A Magyar Köztársaság Helységnévtára, 2009",
    "source:population:date": "2016-01-01",
    "id": "node/706545890"
  },
  "geometry": {
    "type": "Point",
    "coordinates": [
      17.6688942,
      46.9266024
    ]
  }
},
{
  "type": "Feature",
  "id": "node/718078235",
  "properties": {
    "version": "3",
    "name": "Balatonföldvár/Balatonszárszó",
    "traffic_sign": "city_limit",
    "id": "node/718078235"
  },
  "geometry": {
    "type": "Point",
    "coordinates": [
      17.8582187,
      46.8436647
    ]
  }
},
{
  "type": "Feature",
  "id": "node/801051458",
  "properties": {
    "version": "10",
    "name": "Balatonstraße",
    "highway": "bus_stop",
    "id": "node/801051458"
  },
  "geometry": {
    "type": "Point",
    "coordinates": [
      13.5076712,
      52.4982524
    ]
  }
},
{
  "type": "Feature",
  "id": "node/802371377",
  "properties": {
    "version": "1",
    "name": "Balaton Panzió",
    "tourism": "hotel",
    "id": "node/802371377"
  },
  "geometry": {
    "type": "Point",
    "coordinates": [
      17.8720837,
      46.850247
    ]
  }
},
{
  "type": "Feature",
  "id": "node/822132943",
  "properties": {
    "version": "8",
    "name": "Balatonfenyves alsó",
    "railway": "halt",
    "ref:mav": "3609",
    "operator": "MÁV",
    "wheelchair": "yes",
    "id": "node/822132943"
  },
  "geometry": {
    "type": "Point",
    "coordinates": [
      17.4537652,
      46.7081968
    ]
  }
},
{
  "type": "Feature",
  "id": "node/871650779",
  "properties": {
    "version": "9",
    "name": "Balaton ABC 5.sz.",
    "shop": "convenience",
    "addr:city": "Vonyarcvashegy",
    "wheelchair": "yes",
    "addr:street": "Kossuth Lajos utca",
    "addr:postcode": "8314",
    "addr:housenumber": "40",
    "toilets:wheelchair": "no",
    "id": "node/871650779"
  },
  "geometry": {
    "type": "Point",
    "coordinates": [
      17.3167893,
      46.7580102
    ]
  }
},
{
  "type": "Feature",
  "id": "node/871655112",
  "properties": {
    "version": "5",
    "bus": "yes",
    "name": "Balatongyörök, bejárati út",
    "highway": "bus_stop",
    "shelter": "yes",
    "public_transport": "platform",
    "id": "node/871655112"
  },
  "geometry": {
    "type": "Point",
    "coordinates": [
      17.348506,
      46.7612937
    ]
  }
},
{
  "type": "Feature",
  "id": "node/928079463",
  "properties": {
    "version": "2",
    "name": "Balatonfenyves",
    "source": "survey",
    "traffic_sign": "city_limit",
    "id": "node/928079463"
  },
  "geometry": {
    "type": "Point",
    "coordinates": [
      17.475822,
      46.7102182
    ]
  }
},
{
  "type": "Feature",
  "id": "node/1001252467",
  "properties": {
    "version": "2",
    "name": "Balatonfűzfő",
    "traffic_sign": "city_limit",
    "id": "node/1001252467"
  },
  "geometry": {
    "type": "Point",
    "coordinates": [
      18.0369218,
      47.0734239
    ]
  }
},
{
  "type": "Feature",
  "id": "node/1001267547",
  "properties": {
    "version": "3",
    "name": "Balatonfűzfő",
    "traffic_sign": "city_limit",
    "id": "node/1001267547"
  },
  "geometry": {
    "type": "Point",
    "coordinates": [
      18.0322319,
      47.0681783
    ]
  }
},
{
  "type": "Feature",
  "id": "node/1065129553",
  "properties": {
    "version": "5",
    "name": "Balatonszéplak alsó",
    "ref:mav": "1626",
    "operator": "MÁV-Start",
    "public_transport": "stop_position",
    "id": "node/1065129553"
  },
  "geometry": {
    "type": "Point",
    "coordinates": [
      17.9911178,
      46.8912986
    ]
  }
},
{
  "type": "Feature",
  "id": "node/1096132500",
  "properties": {
    "version": "2",
    "name": "Balatonhídvég",
    "place": "farm",
    "id": "node/1096132500"
  },
  "geometry": {
    "type": "Point",
    "coordinates": [
      17.1807302,
      46.6387482
    ]
  }
},
{
  "type": "Feature",
  "id": "node/1109400565",
  "properties": {
    "version": "5",
    "name": "Balaton",
    "amenity": "restaurant",
    "cuisine": "regional",
    "addr:city": "Zabrze",
    "addr:street": "Kazimierza Brodzińskiego",
    "addr:postcode": "41-800",
    "opening_hours": "Mo-Th 11:00-21:00; Fr-Su 11:00-22:00",
    "addr:housenumber": "2",
    "id": "node/1109400565"
  },
  "geometry": {
    "type": "Point",
    "coordinates": [
      18.7792379,
      50.2998221
    ]
  }
},
{
  "type": "Feature",
  "id": "node/1123228760",
  "properties": {
    "version": "2",
    "name": "Balatoncsehi",
    "place": "hamlet",
    "id": "node/1123228760"
  },
  "geometry": {
    "type": "Point",
    "coordinates": [
      17.6259403,
      46.7470918
    ]
  }
},
{
  "type": "Feature",
  "id": "node/1123352929",
  "properties": {
    "version": "5",
    "name": "Balatonkiliti",
    "place": "suburb",
    "postal_code": "8600",
    "disused:postal_code": "8611",
    "id": "node/1123352929"
  },
  "geometry": {
    "type": "Point",
    "coordinates": [
      18.0703209,
      46.8791369
    ]
  }
},
{
  "type": "Feature",
  "id": "node/1123369024",
  "properties": {
    "version": "18",
    "MCC": "216",
    "MNC": "01; 03; 30; 70",
    "ref": "Balatonvilágos",
    "source": "survey; OpenCellID",
    "gsm:LAC": "3321; 201; 27; 120",
    "lte:LAC": "23213; 101; 270;23213; 3208",
    "lte:eNB": "2328; 40721; 2328;3272; 3683",
    "man_made": "tower",
    "material": "metal",
    "operator": "Telenor; Digi; Telekom; Vodafone",
    "ref:digi": "SO44072",
    "umts:LAC": "4311; none; fixme; 220",
    "umts:PSC": "fixme; none; fixme; 465;466;fixme",
    "umts:RNC": "431; none; fixme; 20",
    "gsm:cellid": "23281;23282; 13705;13706;13707; 2104;2105;2551; 36831;36832;36833;36834;36835;36836",
    "lte:cellid": "6;7; 1;4;5;6; 1;2;3;6;7; 0;1;2",
    "tower:type": "communication",
    "survey:date": "2019-06-29",
    "umts:cellid": "23281;23282;23286;23287;31731;31732;31736; none; fixme; 25961;25962;25963;36831;36832;36833;36834;36835;36836;36837;42141;42142;42143;42146",
    "ref:vodafone": "3683",
    "gsm:direction": "30;210; fixme; 45;135;225; fixme",
    "communication:mobile_phone": "gsm;umts;lte",
    "id": "node/1123369024"
  },
  "geometry": {
    "type": "Point",
    "coordinates": [
      18.1686379,
      46.9735151
    ]
  }
},
{
  "type": "Feature",
  "id": "node/1123396387",
  "properties": {
    "version": "4",
    "name": "Balatonbozsok",
    "place": "suburb",
    "name:ru": "Балатонбожок",
    "postal_code": "8131",
    "id": "node/1123396387"
  },
  "geometry": {
    "type": "Point",
    "coordinates": [
      18.2216535,
      46.9550127
    ]
  }
},
{
  "type": "Feature",
  "id": "node/1123396483",
  "properties": {
    "version": "2",
    "name": "Balatonvilágospuszta",
    "place": "farm",
    "id": "node/1123396483"
  },
  "geometry": {
    "type": "Point",
    "coordinates": [
      18.1806443,
      46.9667367
    ]
  }
},
{
  "type": "Feature",
  "id": "node/1123408948",
  "properties": {
    "version": "4",
    "name": "Balatonszéplak",
    "place": "suburb",
    "id": "node/1123408948"
  },
  "geometry": {
    "type": "Point",
    "coordinates": [
      18.0064877,
      46.8970247
    ]
  }
},
{
  "type": "Feature",
  "id": "node/1124747598",
  "properties": {
    "version": "5",
    "name": "Balatonszemesi hajóállomás",
    "cargo": "passengers",
    "amenity": "ferry_terminal",
    "operator": "Balatoni Hajózási Zrt.",
    "id": "node/1124747598"
  },
  "geometry": {
    "type": "Point",
    "coordinates": [
      17.7678026,
      46.8142548
    ]
  }
},
{
  "type": "Feature",
  "id": "node/1132268997",
  "properties": {
    "version": "2",
    "name": "Balatonaliga",
    "place": "hamlet",
    "id": "node/1132268997"
  },
  "geometry": {
    "type": "Point",
    "coordinates": [
      18.1721485,
      46.9905731
    ]
  }
},
{
  "type": "Feature",
  "id": "node/1132398367",
  "properties": {
    "version": "2",
    "name": "Balatonarács",
    "place": "suburb",
    "id": "node/1132398367"
  },
  "geometry": {
    "type": "Point",
    "coordinates": [
      17.8974765,
      46.968314
    ]
  }
},
{
  "type": "Feature",
  "id": "node/1235799322",
  "properties": {
    "version": "4",
    "name": "Balatonrendes",
    "traffic_sign": "city_limit",
    "id": "node/1235799322"
  },
  "geometry": {
    "type": "Point",
    "coordinates": [
      17.5810911,
      46.8239542
    ]
  }
},
{
  "type": "Feature",
  "id": "node/1243299109",
  "properties": {
    "version": "3",
    "name": "Los Balatones",
    "place": "locality",
    "source": "Instituto Geográfico Nacional",
    "source:date": "201011",
    "id": "node/1243299109"
  },
  "geometry": {
    "type": "Point",
    "coordinates": [
      -3.2023279,
      36.9804702
    ]
  }
},
{
  "type": "Feature",
  "id": "node/1272921597",
  "properties": {
    "version": "4",
    "bus": "yes",
    "name": "Szabadifürdő, v.mh.",
    "highway": "bus_stop",
    "old_name": "Balatonszabadi, v.mh.",
    "public_transport": "platform",
    "id": "node/1272921597"
  },
  "geometry": {
    "type": "Point",
    "coordinates": [
      18.1004134,
      46.9241245
    ]
  }
},
{
  "type": "Feature",
  "id": "node/1282574209",
  "properties": {
    "version": "2",
    "name": "Balatonlelle",
    "traffic_sign": "city_limit",
    "id": "node/1282574209"
  },
  "geometry": {
    "type": "Point",
    "coordinates": [
      17.7268016,
      46.7959542
    ]
  }
},
{
  "type": "Feature",
  "id": "node/1315033631",
  "properties": {
    "version": "2",
    "name": "BFYC Balatonfői Yacht Club",
    "leisure": "marina",
    "id": "node/1315033631"
  },
  "geometry": {
    "type": "Point",
    "coordinates": [
      18.1276519,
      47.0234977
    ]
  }
},
{
  "type": "Feature",
  "id": "node/1320934991",
  "properties": {
    "version": "4",
    "name": "Balatonföldvári hajóállomás",
    "cargo": "passengers",
    "amenity": "ferry_terminal",
    "operator": "Balatoni Hajózási Zrt.",
    "id": "node/1320934991"
  },
  "geometry": {
    "type": "Point",
    "coordinates": [
      17.8805531,
      46.855821
    ]
  }
},
{
  "type": "Feature",
  "id": "node/1340095008",
  "properties": {
    "version": "1",
    "name": "Balatonmáriafürdő Túravitorlás Egyesület",
    "leisure": "marina",
    "id": "node/1340095008"
  },
  "geometry": {
    "type": "Point",
    "coordinates": [
      17.3816052,
      46.7059269
    ]
  }
},
{
  "type": "Feature",
  "id": "node/1340095290",
  "properties": {
    "version": "1",
    "name": "Balatonberény Magyar tenger VSE",
    "leisure": "marina",
    "id": "node/1340095290"
  },
  "geometry": {
    "type": "Point",
    "coordinates": [
      17.3299773,
      46.7167811
    ]
  }
},
{
  "type": "Feature",
  "id": "node/1350464043",
  "properties": {
    "version": "2",
    "name": "Kis-Balaton Info",
    "name:de": "Kleiner Plattensee Info",
    "tourism": "information",
    "id": "node/1350464043"
  },
  "geometry": {
    "type": "Point",
    "coordinates": [
      17.238187,
      46.7008852
    ]
  }
},
{
  "type": "Feature",
  "id": "node/1351040018",
  "properties": {
    "version": "4",
    "name": "Balaton Csárda",
    "amenity": "restaurant",
    "id": "node/1351040018"
  },
  "geometry": {
    "type": "Point",
    "coordinates": [
      17.3217326,
      46.714609
    ]
  }
},
{
  "type": "Feature",
  "id": "node/1359204969",
  "properties": {
    "version": "2",
    "name": "Balatonöszöd Kormányüdülő",
    "leisure": "marina",
    "id": "node/1359204969"
  },
  "geometry": {
    "type": "Point",
    "coordinates": [
      17.7845028,
      46.8221998
    ]
  }
},
{
  "type": "Feature",
  "id": "node/1369931045",
  "properties": {
    "version": "3",
    "name": "Balatonalmádi-Káptalanfüred",
    "traffic_sign": "city_limit",
    "id": "node/1369931045"
  },
  "geometry": {
    "type": "Point",
    "coordinates": [
      17.9992101,
      47.004032
    ]
  }
},
{
  "type": "Feature",
  "id": "node/1427055677",
  "properties": {
    "version": "3",
    "name": "Balatonhenye, autóbusz-váróterem",
    "highway": "bus_stop",
    "mapillary": "2pH2rL2QepOnL9CL_uUSDQ",
    "id": "node/1427055677"
  },
  "geometry": {
    "type": "Point",
    "coordinates": [
      17.6159273,
      46.911228
    ]
  }
},
{
  "type": "Feature",
  "id": "node/1428244404",
  "properties": {
    "version": "1",
    "name": "Balaton",
    "place": "locality",
    "source": "kapor2",
    "import_ref": "kapor_names",
    "id": "node/1428244404"
  },
  "geometry": {
    "type": "Point",
    "coordinates": [
      17.6531003,
      48.6655809
    ]
  }
},
{
  "type": "Feature",
  "id": "node/1684495243",
  "properties": {
    "version": "4",
    "name": "Balatonakarattya",
    "traffic_sign": "city_limit",
    "id": "node/1684495243"
  },
  "geometry": {
    "type": "Point",
    "coordinates": [
      18.1729468,
      47.0096771
    ]
  }
},
{
  "type": "Feature",
  "id": "node/1685778523",
  "properties": {
    "version": "5",
    "name": "Balaton utca",
    "highway": "bus_stop",
    "shelter": "yes",
    "operator": "KEKO",
    "public_transport": "platform",
    "id": "node/1685778523"
  },
  "geometry": {
    "type": "Point",
    "coordinates": [
      19.6805096,
      46.915187
    ]
  }
},
{
  "type": "Feature",
  "id": "node/1767602841",
  "properties": {
    "version": "3",
    "name": "Balaton faszobor",
    "tourism": "artwork",
    "material": "wood",
    "artwork_type": "sculpture",
    "id": "node/1767602841"
  },
  "geometry": {
    "type": "Point",
    "coordinates": [
      17.2454268,
      46.7506482
    ]
  }
},
{
  "type": "Feature",
  "id": "node/1769579744",
  "properties": {
    "version": "2",
    "ref": "123",
    "name": "Balatonföldvár Bálványos",
    "highway": "motorway_junction",
    "id": "node/1769579744"
  },
  "geometry": {
    "type": "Point",
    "coordinates": [
      17.9191591,
      46.8168279
    ]
  }
},
{
  "type": "Feature",
  "id": "node/1769651808",
  "properties": {
    "version": "2",
    "name": "Balaton",
    "amenity": "restaurant",
    "wheelchair": "no",
    "id": "node/1769651808"
  },
  "geometry": {
    "type": "Point",
    "coordinates": [
      11.971074,
      51.4872196
    ]
  }
},
{
  "type": "Feature",
  "id": "node/1878998599",
  "properties": {
    "version": "2",
    "name": "Balatonalmádi, ABC",
    "highway": "bus_stop",
    "operator": "Volán",
    "id": "node/1878998599"
  },
  "geometry": {
    "type": "Point",
    "coordinates": [
      18.01304,
      47.0327711
    ]
  }
},
{
  "type": "Feature",
  "id": "node/1878998601",
  "properties": {
    "version": "2",
    "name": "Balatonalmádi, ABC",
    "highway": "bus_stop",
    "shelter": "yes",
    "operator": "Volán",
    "id": "node/1878998601"
  },
  "geometry": {
    "type": "Point",
    "coordinates": [
      18.0136805,
      47.0330651
    ]
  }
},
{
  "type": "Feature",
  "id": "node/1878998622",
  "properties": {
    "version": "4",
    "name": "Balatonalmádi, Szabadság utca",
    "highway": "bus_stop",
    "shelter": "yes",
    "operator": "Volán",
    "wheelchair": "yes",
    "toilets:wheelchair": "yes",
    "id": "node/1878998622"
  },
  "geometry": {
    "type": "Point",
    "coordinates": [
      18.0117505,
      47.0381891
    ]
  }
},
{
  "type": "Feature",
  "id": "node/1878998630",
  "properties": {
    "version": "2",
    "name": "Balatonalmádi, Szőlő utca",
    "highway": "bus_stop",
    "operator": "Volán",
    "id": "node/1878998630"
  },
  "geometry": {
    "type": "Point",
    "coordinates": [
      18.0087738,
      47.0401909
    ]
  }
},
{
  "type": "Feature",
  "id": "node/1927340450",
  "properties": {
    "version": "9",
    "name": "Balatonstraße",
    "highway": "bus_stop",
    "id": "node/1927340450"
  },
  "geometry": {
    "type": "Point",
    "coordinates": [
      13.5078748,
      52.4990197
    ]
  }
},
{
  "type": "Feature",
  "id": "node/1977127485",
  "properties": {
    "version": "5",
    "name": "Villa Balaton",
    "email": "info@balatonvilla.hu",
    "phone": "+36 87 788 290",
    "tourism": "guest_house",
    "website": "http://www.balatonvilla.hu",
    "addr:city": "Balatonfüred",
    "addr:street": "Deák Ferenc utca",
    "addr:postcode": "8230",
    "addr:housenumber": "38",
    "id": "node/1977127485"
  },
  "geometry": {
    "type": "Point",
    "coordinates": [
      17.9009794,
      46.9588461
    ]
  }
},
{
  "type": "Feature",
  "id": "node/2009730860",
  "properties": {
    "version": "4",
    "bus": "yes",
    "name": "Balatoni út",
    "lines": "6C",
    "highway": "bus_stop",
    "public_transport": "platform",
    "id": "node/2009730860"
  },
  "geometry": {
    "type": "Point",
    "coordinates": [
      17.0037164,
      46.4592922
    ]
  }
},
{
  "type": "Feature",
  "id": "node/2009730861",
  "properties": {
    "version": "3",
    "bus": "yes",
    "name": "Balatoni út",
    "lines": "6C",
    "highway": "bus_stop",
    "public_transport": "platform",
    "id": "node/2009730861"
  },
  "geometry": {
    "type": "Point",
    "coordinates": [
      17.0023797,
      46.4589177
    ]
  }
},
{
  "type": "Feature",
  "id": "node/2162386934",
  "properties": {
    "version": "2",
    "name": "Balaton utca",
    "highway": "bus_stop",
    "operator": "DKV",
    "ref:derke": "1700405",
    "id": "node/2162386934"
  },
  "geometry": {
    "type": "Point",
    "coordinates": [
      21.6096767,
      47.5080085
    ]
  }
},
{
  "type": "Feature",
  "id": "node/2162386935",
  "properties": {
    "version": "2",
    "name": "Balaton utca",
    "highway": "bus_stop",
    "operator": "DKV",
    "ref:derke": "1700401",
    "id": "node/2162386935"
  },
  "geometry": {
    "type": "Point",
    "coordinates": [
      21.6098016,
      47.5080419
    ]
  }
},
{
  "type": "Feature",
  "id": "node/2211707571",
  "properties": {
    "version": "4",
    "bus": "yes",
    "name": "Balatongyörök, bejárati út",
    "highway": "bus_stop",
    "shelter": "yes",
    "public_transport": "platform",
    "id": "node/2211707571"
  },
  "geometry": {
    "type": "Point",
    "coordinates": [
      17.348097,
      46.7613607
    ]
  }
},
{
  "type": "Feature",
  "id": "node/2211707575",
  "properties": {
    "version": "3",
    "bus": "yes",
    "name": "Balatongyörök, Szépkilátó",
    "highway": "bus_stop",
    "shelter": "yes",
    "public_transport": "platform",
    "id": "node/2211707575"
  },
  "geometry": {
    "type": "Point",
    "coordinates": [
      17.3598128,
      46.7693228
    ]
  }
},
{
  "type": "Feature",
  "id": "node/2211707579",
  "properties": {
    "version": "3",
    "bus": "yes",
    "name": "Balatongyörök, Szépkilátó",
    "highway": "bus_stop",
    "public_transport": "platform",
    "id": "node/2211707579"
  },
  "geometry": {
    "type": "Point",
    "coordinates": [
      17.3608543,
      46.7697925
    ]
  }
},
{
  "type": "Feature",
  "id": "node/2211707582",
  "properties": {
    "version": "3",
    "bus": "yes",
    "name": "Balatongyörök, Becehegy",
    "highway": "bus_stop",
    "shelter": "yes",
    "public_transport": "platform",
    "id": "node/2211707582"
  },
  "geometry": {
    "type": "Point",
    "coordinates": [
      17.3667594,
      46.7785128
    ]
  }
},
{
  "type": "Feature",
  "id": "node/2211707589",
  "properties": {
    "version": "4",
    "bus": "yes",
    "name": "Balatonederics, bejárati út",
    "bench": "yes",
    "highway": "bus_stop",
    "shelter": "yes",
    "public_transport": "platform",
    "id": "node/2211707589"
  },
  "geometry": {
    "type": "Point",
    "coordinates": [
      17.3828234,
      46.7968537
    ]
  }
},
{
  "type": "Feature",
  "id": "node/2211707590",
  "properties": {
    "version": "3",
    "bus": "yes",
    "name": "Balatonederics, bejárati út",
    "highway": "bus_stop",
    "public_transport": "platform",
    "id": "node/2211707590"
  },
  "geometry": {
    "type": "Point",
    "coordinates": [
      17.3832362,
      46.7974299
    ]
  }
},
{
  "type": "Feature",
  "id": "node/2217483039",
  "properties": {
    "version": "5",
    "name": "Balaton Szabadidő és Konferencia Központ",
    "email": "balatonkonferencia@t-online.hu",
    "amenity": "community_centre",
    "addr:city": "Balatonfüred",
    "wheelchair": "no",
    "addr:street": "Horváth Mihály utca",
    "addr:postcode": "8230",
    "id": "node/2217483039"
  },
  "geometry": {
    "type": "Point",
    "coordinates": [
      17.8776724,
      46.9511742
    ]
  }
},
{
  "type": "Feature",
  "id": "node/2220019583",
  "properties": {
    "version": "14",
    "MCC": "216",
    "MNC": "01; 30; 70",
    "ref": "Balatonfűzfő",
    "source": "survey; OpenCellID",
    "gsm:LAC": "3321; fixme; 120",
    "lte:LAC": "23213; 23213; 3209",
    "lte:eNB": "2721; 2721; 3041",
    "man_made": "tower",
    "material": "metal",
    "operator": "Telenor; Telekom; Vodafone",
    "umts:LAC": "4311; 27; 220",
    "umts:RNC": "431; 201; 20",
    "gsm:cellid": "27211;27212;27213;27217; fixme; 30411;30412;30413;30414;30415;30416",
    "lte:cellid": "6;7;8; 6;7;8; 0;1;2",
    "tower:type": "communication",
    "umts:cellid": "27211;27212;27213;27216;27217;27218; 40989;40990;40991; 30411;30412;30413;30414;30415;30416;30417;30418;30419",
    "ref:vodafone": "3041",
    "tower:structure": "lattice",
    "communication:mobile_phone": "gsm;umts;lte",
    "id": "node/2220019583"
  },
  "geometry": {
    "type": "Point",
    "coordinates": [
      18.031489,
      47.0632615
    ]
  }
},
{
  "type": "Feature",
  "id": "node/2223142625",
  "properties": {
    "version": "4",
    "name": "Balatonakarattya",
    "traffic_sign": "city_limit",
    "id": "node/2223142625"
  },
  "geometry": {
    "type": "Point",
    "coordinates": [
      18.1344994,
      47.0295105
    ]
  }
},
{
  "type": "Feature",
  "id": "node/2260731468",
  "properties": {
    "version": "5",
    "name": "Balatonfűzfő",
    "traffic_sign": "city_limit",
    "id": "node/2260731468"
  },
  "geometry": {
    "type": "Point",
    "coordinates": [
      18.0585297,
      47.0465753
    ]
  }
},
{
  "type": "Feature",
  "id": "node/2264550535",
  "properties": {
    "version": "2",
    "name": "Balatonvilágos, b.aligai elágazás",
    "highway": "bus_stop",
    "id": "node/2264550535"
  },
  "geometry": {
    "type": "Point",
    "coordinates": [
      18.184216,
      46.99152
    ]
  }
},
{
  "type": "Feature",
  "id": "node/2264550536",
  "properties": {
    "version": "2",
    "name": "Balatonvilágos, b.aligai elágazás",
    "highway": "bus_stop",
    "id": "node/2264550536"
  },
  "geometry": {
    "type": "Point",
    "coordinates": [
      18.1843346,
      46.9917138
    ]
  }
},
{
  "type": "Feature",
  "id": "node/2264594955",
  "properties": {
    "version": "3",
    "name": "Balatonaliga, v. mh. felj. út",
    "bench": "yes",
    "highway": "bus_stop",
    "shelter": "yes",
    "id": "node/2264594955"
  },
  "geometry": {
    "type": "Point",
    "coordinates": [
      18.1722331,
      46.9839392
    ]
  }
},
{
  "type": "Feature",
  "id": "node/2264594958",
  "properties": {
    "version": "2",
    "name": "Balatonaliga, v. mh. felj. út",
    "bench": "yes",
    "highway": "bus_stop",
    "shelter": "yes",
    "id": "node/2264594958"
  },
  "geometry": {
    "type": "Point",
    "coordinates": [
      18.1725314,
      46.9841413
    ]
  }
},
{
  "type": "Feature",
  "id": "node/2264730599",
  "properties": {
    "version": "3",
    "bus": "yes",
    "name": "Szabadifürdő, v.mh.",
    "highway": "bus_stop",
    "old_name": "Balatonszabadi, v.mh.",
    "public_transport": "platform",
    "id": "node/2264730599"
  },
  "geometry": {
    "type": "Point",
    "coordinates": [
      18.1000599,
      46.9241917
    ]
  }
},
{
  "type": "Feature",
  "id": "node/2271606011",
  "properties": {
    "version": "4",
    "bin": "no",
    "bus": "yes",
    "name": "Balatonszemes, horgásztó",
    "bench": "no",
    "highway": "bus_stop",
    "shelter": "no",
    "public_transport": "platform",
    "id": "node/2271606011"
  },
  "geometry": {
    "type": "Point",
    "coordinates": [
      17.8083934,
      46.8225818
    ]
  }
},
{
  "type": "Feature",
  "id": "node/2285842294",
  "properties": {
    "version": "1",
    "name": "Balatonné Kisboltja",
    "shop": "convenience",
    "id": "node/2285842294"
  },
  "geometry": {
    "type": "Point",
    "coordinates": [
      21.5830944,
      47.364816
    ]
  }
},
{
  "type": "Feature",
  "id": "node/2287309597",
  "properties": {
    "version": "1",
    "name": "Balaton",
    "amenity": "fast_food",
    "cuisine": "pizza",
    "id": "node/2287309597"
  },
  "geometry": {
    "type": "Point",
    "coordinates": [
      10.7832072,
      44.5415317
    ]
  }
},
{
  "type": "Feature",
  "id": "node/2307395464",
  "properties": {
    "version": "4",
    "name": "Balaton étterem",
    "phone": "+36 87 481 319",
    "amenity": "restaurant",
    "cuisine": "regional",
    "smoking": "no",
    "website": "http://www.balatonetterem.hu/",
    "addr:city": "Balatonfüred",
    "wheelchair": "yes",
    "addr:street": "Kisfaludy utca",
    "addr:postcode": "8230",
    "addr:housenumber": "5",
    "id": "node/2307395464"
  },
  "geometry": {
    "type": "Point",
    "coordinates": [
      17.8948354,
      46.9548679
    ]
  }
},
{
  "type": "Feature",
  "id": "node/2327663594",
  "properties": {
    "version": "4",
    "bin": "yes",
    "bus": "yes",
    "name": "Balatonszemes, községháza",
    "bench": "yes",
    "highway": "bus_stop",
    "shelter": "yes",
    "public_transport": "platform",
    "id": "node/2327663594"
  },
  "geometry": {
    "type": "Point",
    "coordinates": [
      17.7809663,
      46.8078549
    ]
  }
},
{
  "type": "Feature",
  "id": "node/2327663610",
  "properties": {
    "version": "3",
    "bus": "yes",
    "name": "Balatonőszöd, 7. sz. út",
    "highway": "bus_stop",
    "public_transport": "platform",
    "id": "node/2327663610"
  },
  "geometry": {
    "type": "Point",
    "coordinates": [
      17.7950307,
      46.8175761
    ]
  }
},
{
  "type": "Feature",
  "id": "node/2327663612",
  "properties": {
    "version": "3",
    "bus": "yes",
    "name": "Balatonszárszó, községháza",
    "highway": "bus_stop",
    "public_transport": "platform",
    "id": "node/2327663612"
  },
  "geometry": {
    "type": "Point",
    "coordinates": [
      17.8326739,
      46.8255199
    ]
  }
},
{
  "type": "Feature",
  "id": "node/2327663615",
  "properties": {
    "version": "3",
    "bus": "yes",
    "name": "Balatonszárszó, Béketelep",
    "highway": "bus_stop",
    "public_transport": "platform",
    "id": "node/2327663615"
  },
  "geometry": {
    "type": "Point",
    "coordinates": [
      17.8468407,
      46.8328589
    ]
  }
},
{
  "type": "Feature",
  "id": "node/2327663618",
  "properties": {
    "version": "4",
    "bus": "yes",
    "name": "Balatonföldvár, központi autóbusz-váróterem",
    "highway": "bus_stop",
    "public_transport": "platform",
    "id": "node/2327663618"
  },
  "geometry": {
    "type": "Point",
    "coordinates": [
      17.8784755,
      46.8486387
    ]
  }
},
{
  "type": "Feature",
  "id": "node/2340374281",
  "properties": {
    "version": "3",
    "name": "Balatonfői webkamera",
    "man_made": "surveillance",
    "surveillance:type": "camera",
    "id": "node/2340374281"
  },
  "geometry": {
    "type": "Point",
    "coordinates": [
      18.1294139,
      47.0237896
    ]
  }
},
{
  "type": "Feature",
  "id": "node/2343416693",
  "properties": {
    "version": "3",
    "bus": "yes",
    "name": "Balatonszepezd, fürdő",
    "highway": "bus_stop",
    "public_transport": "platform",
    "id": "node/2343416693"
  },
  "geometry": {
    "type": "Point",
    "coordinates": [
      17.6489145,
      46.8393925
    ]
  }
},
{
  "type": "Feature",
  "id": "node/2343416694",
  "properties": {
    "version": "3",
    "bus": "yes",
    "name": "Balatonszepezd, fürdő",
    "highway": "bus_stop",
    "public_transport": "platform",
    "id": "node/2343416694"
  },
  "geometry": {
    "type": "Point",
    "coordinates": [
      17.6494191,
      46.8397396
    ]
  }
},
{
  "type": "Feature",
  "id": "node/2343416790",
  "properties": {
    "version": "3",
    "ref": "7426",
    "name": "Balatonarács, vasúti megállóhely",
    "highway": "bus_stop",
    "network": "local",
    "operator": "ÉNYKK",
    "public_transport": "platform",
    "id": "node/2343416790"
  },
  "geometry": {
    "type": "Point",
    "coordinates": [
      17.8960196,
      46.9615016
    ]
  }
},
{
  "type": "Feature",
  "id": "node/2343416791",
  "properties": {
    "version": "3",
    "ref": "7426",
    "name": "Balatonarács, vasúti megállóhely",
    "bench": "yes",
    "highway": "bus_stop",
    "network": "local",
    "shelter": "yes",
    "operator": "ÉNYKK",
    "public_transport": "platform",
    "id": "node/2343416791"
  },
  "geometry": {
    "type": "Point",
    "coordinates": [
      17.8966011,
      46.9615794
    ]
  }
},
{
  "type": "Feature",
  "id": "node/2343812862",
  "properties": {
    "version": "2",
    "name": "Balatonakali hajóállomás",
    "cargo": "passengers",
    "amenity": "ferry_terminal",
    "operator": "Balatoni Hajózási Zrt.",
    "id": "node/2343812862"
  },
  "geometry": {
    "type": "Point",
    "coordinates": [
      17.7423873,
      46.877869
    ]
  }
},
{
  "type": "Feature",
  "id": "node/2344104475",
  "properties": {
    "version": "3",
    "name": "Balatonboglár",
    "cargo": "passengers",
    "amenity": "ferry_terminal",
    "operator": "Balatoni Hajózási Zrt.",
    "wheelchair": "yes",
    "toilets:wheelchair": "yes",
    "id": "node/2344104475"
  },
  "geometry": {
    "type": "Point",
    "coordinates": [
      17.6484678,
      46.7806344
    ]
  }
},
{
  "type": "Feature",
  "id": "node/2344351561",
  "properties": {
    "version": "3",
    "name": "Balatongyöröki hajóállomás",
    "cargo": "passengers",
    "ferry": "yes",
    "amenity": "ferry_terminal",
    "operator": "Balatoni Hajózási Zrt.",
    "public_transport": "station",
    "id": "node/2344351561"
  },
  "geometry": {
    "type": "Point",
    "coordinates": [
      17.3558946,
      46.7500996
    ]
  }
},
{
  "type": "Feature",
  "id": "node/2344351573",
  "properties": {
    "version": "2",
    "name": "Balatonlellei hajóállomás",
    "cargo": "passengers",
    "amenity": "ferry_terminal",
    "operator": "Balatoni Hajózási Zrt.",
    "id": "node/2344351573"
  },
  "geometry": {
    "type": "Point",
    "coordinates": [
      17.6911653,
      46.7924436
    ]
  }
},
{
  "type": "Feature",
  "id": "node/2344376022",
  "properties": {
    "version": "4",
    "name": "Balatonalmádi hajóállomás",
    "cargo": "passengers",
    "amenity": "ferry_terminal",
    "operator": "Balatoni Hajózási Zrt.",
    "id": "node/2344376022"
  },
  "geometry": {
    "type": "Point",
    "coordinates": [
      18.0214056,
      47.0264334
    ]
  }
},
{
  "type": "Feature",
  "id": "node/2344376031",
  "properties": {
    "version": "4",
    "name": "Balatonfüredi hajóállomás",
    "cargo": "passengers",
    "ferry": "yes",
    "amenity": "ferry_terminal",
    "operator": "Balatoni Hajózási Zrt.",
    "wheelchair": "limited",
    "public_transport": "stop_position",
    "id": "node/2344376031"
  },
  "geometry": {
    "type": "Point",
    "coordinates": [
      17.8952107,
      46.9518508
    ]
  }
},
{
  "type": "Feature",
  "id": "node/2346054487",
  "properties": {
    "version": "5",
    "MCC": "216",
    "MNC": "01; 30",
    "ref": "Tétényi-fennsík, Csúcs utcában a Balatoni út mellett",
    "colour": "red;white",
    "source": "survey; OpenCellID",
    "gsm:LAC": "3511; 91",
    "lte:LAC": "5112; 12003",
    "lte:eNB": "338; 295",
    "man_made": "tower",
    "material": "metal",
    "operator": "Telenor; Telekom",
    "umts:LAC": "4112; 1200",
    "umts:RNC": "411; 211",
    "gsm:cellid": "3381;3387; 1090;1091",
    "lte:cellid": "1;2; 1;2;3",
    "tower:type": "communication",
    "survey:date": "2015-09-19",
    "umts:cellid": "3381;3382;3386;3387; 37077;37078;37079;42320;42321;42322",
    "communication:mobile_phone": "gsm;umts;lte",
    "id": "node/2346054487"
  },
  "geometry": {
    "type": "Point",
    "coordinates": [
      18.9807208,
      47.4159667
    ]
  }
},
{
  "type": "Feature",
  "id": "node/2362065828",
  "properties": {
    "version": "4",
    "ref": "7471",
    "name": "Balatonarács, vasúti megállóhely",
    "highway": "bus_stop",
    "network": "local",
    "shelter": "yes",
    "operator": "ÉNYKK",
    "public_transport": "platform",
    "id": "node/2362065828"
  },
  "geometry": {
    "type": "Point",
    "coordinates": [
      17.8985753,
      46.9622071
    ]
  }
},
{
  "type": "Feature",
  "id": "node/2380492657",
  "properties": {
    "version": "2",
    "bus": "yes",
    "name": "Balatonboglár, vasútállomás",
    "bench": "yes",
    "highway": "bus_stop",
    "shelter": "no",
    "public_transport": "platform",
    "id": "node/2380492657"
  },
  "geometry": {
    "type": "Point",
    "coordinates": [
      17.6471114,
      46.7757401
    ]
  }
},
{
  "type": "Feature",
  "id": "node/2380492659",
  "properties": {
    "version": "4",
    "bus": "yes",
    "name": "Balatonboglár, vasútállomás",
    "bench": "yes",
    "highway": "bus_stop",
    "shelter": "no",
    "public_transport": "platform",
    "id": "node/2380492659"
  },
  "geometry": {
    "type": "Point",
    "coordinates": [
      17.647084,
      46.7755889
    ]
  }
},
{
  "type": "Feature",
  "id": "node/2385480991",
  "properties": {
    "version": "1",
    "name": "Balaton",
    "amenity": "restaurant",
    "id": "node/2385480991"
  },
  "geometry": {
    "type": "Point",
    "coordinates": [
      20.2466937,
      53.5837313
    ]
  }
},
{
  "type": "Feature",
  "id": "node/2386673546",
  "properties": {
    "version": "5",
    "bus": "yes",
    "name": "Balatonkeresztúr, iskola",
    "bench": "yes",
    "highway": "bus_stop",
    "shelter": "yes",
    "public_transport": "platform",
    "id": "node/2386673546"
  },
  "geometry": {
    "type": "Point",
    "coordinates": [
      17.3701744,
      46.6989664
    ]
  }
},
{
  "type": "Feature",
  "id": "node/2386673549",
  "properties": {
    "version": "3",
    "bus": "yes",
    "name": "Balatonkeresztúr, templom",
    "bench": "yes",
    "highway": "bus_stop",
    "shelter": "yes",
    "public_transport": "platform",
    "id": "node/2386673549"
  },
  "geometry": {
    "type": "Point",
    "coordinates": [
      17.3705975,
      46.6965422
    ]
  }
},
{
  "type": "Feature",
  "id": "node/2386674843",
  "properties": {
    "version": "5",
    "bus": "yes",
    "name": "Balatonkeresztúr, iskola",
    "bench": "yes",
    "highway": "bus_stop",
    "shelter": "yes",
    "public_transport": "platform",
    "id": "node/2386674843"
  },
  "geometry": {
    "type": "Point",
    "coordinates": [
      17.3699513,
      46.6984441
    ]
  }
},
{
  "type": "Feature",
  "id": "node/2386843419",
  "properties": {
    "version": "2",
    "bus": "yes",
    "name": "Balatonboglár, Posta",
    "highway": "bus_stop",
    "public_transport": "platform",
    "id": "node/2386843419"
  },
  "geometry": {
    "type": "Point",
    "coordinates": [
      17.6557023,
      46.778134
    ]
  }
},
{
  "type": "Feature",
  "id": "node/2386863721",
  "properties": {
    "version": "4",
    "bus": "yes",
    "name": "Balatonlelle, Becsali köz",
    "highway": "bus_stop",
    "public_transport": "platform",
    "id": "node/2386863721"
  },
  "geometry": {
    "type": "Point",
    "coordinates": [
      17.7174926,
      46.7932766
    ]
  }
},
{
  "type": "Feature",
  "id": "node/2386864117",
  "properties": {
    "version": "3",
    "bus": "yes",
    "name": "Balatonlelle, Becsali köz",
    "highway": "bus_stop",
    "public_transport": "platform",
    "id": "node/2386864117"
  },
  "geometry": {
    "type": "Point",
    "coordinates": [
      17.7168301,
      46.7929433
    ]
  }
},
{
  "type": "Feature",
  "id": "node/2386973051",
  "properties": {
    "version": "4",
    "bus": "yes",
    "name": "Balatonlelle, rádpusztai elágazás",
    "highway": "bus_stop",
    "shelter": "yes",
    "public_transport": "platform",
    "id": "node/2386973051"
  },
  "geometry": {
    "type": "Point",
    "coordinates": [
      17.7467774,
      46.8018326
    ]
  }
},
{
  "type": "Feature",
  "id": "node/2390887881",
  "properties": {
    "version": "2",
    "name": "Balatonszentgyörgy",
    "source": "survey",
    "traffic_sign": "city_limit",
    "id": "node/2390887881"
  },
  "geometry": {
    "type": "Point",
    "coordinates": [
      17.2911568,
      46.6897727
    ]
  }
},
{
  "type": "Feature",
  "id": "node/2393723580",
  "properties": {
    "version": "1",
    "name": "Balatonudvari kikötő",
    "cargo": "passengers",
    "amenity": "ferry_terminal",
    "id": "node/2393723580"
  },
  "geometry": {
    "type": "Point",
    "coordinates": [
      17.7911804,
      46.892434
    ]
  }
},
{
  "type": "Feature",
  "id": "node/2397493396",
  "properties": {
    "version": "2",
    "name": "Balatonszentgyörgy",
    "railway": "station",
    "ref:mav": "3617",
    "id": "node/2397493396"
  },
  "geometry": {
    "type": "Point",
    "coordinates": [
      17.2889461,
      46.6927207
    ]
  }
},
{
  "type": "Feature",
  "id": "node/2411788626",
  "properties": {
    "version": "4",
    "name": "Balatonfűzfő, fövenyfürdő",
    "highway": "bus_stop",
    "shelter": "yes",
    "id": "node/2411788626"
  },
  "geometry": {
    "type": "Point",
    "coordinates": [
      18.0548858,
      47.0510658
    ]
  }
},
{
  "type": "Feature",
  "id": "node/2411788627",
  "properties": {
    "version": "4",
    "name": "Balatonfűzfő, fövenyfürdő",
    "bench": "yes",
    "highway": "bus_stop",
    "shelter": "no",
    "id": "node/2411788627"
  },
  "geometry": {
    "type": "Point",
    "coordinates": [
      18.0548825,
      47.0513477
    ]
  }
},
{
  "type": "Feature",
  "id": "node/2426397331",
  "properties": {
    "version": "2",
    "name": "Szent Benedek Gimnázium, Szakképző Iskola és Kollégium - Balatonfüredi Széchényi Ferenc Tagintézmény",
    "amenity": "school",
    "website": "http://www.sztbenedekiskola.hu",
    "addr:city": "Balatonfüred",
    "addr:street": "Hősök tere",
    "addr:postcode": "8230",
    "addr:housenumber": "1",
    "id": "node/2426397331"
  },
  "geometry": {
    "type": "Point",
    "coordinates": [
      17.8946238,
      46.9695945
    ]
  }
},
{
  "type": "Feature",
  "id": "node/2427283607",
  "properties": {
    "version": "6",
    "ele": "126",
    "ref": "Balatonszabadi-Sóstó",
    "url": "http://www.fmdx.hu/transmitters-hng-siofok-szabadi-sosto.htm",
    "name": "TV-torony",
    "height": "145",
    "source": "fmdx.hu",
    "man_made": "tower",
    "material": "metal",
    "operator": "Antenna Hungária",
    "importance": "regional",
    "tower:type": "communication",
    "communication:radio": "fm",
    "communication:television": "dvb-t",
    "id": "node/2427283607"
  },
  "geometry": {
    "type": "Point",
    "coordinates": [
      18.1139227,
      46.9216906
    ]
  }
},
{
  "type": "Feature",
  "id": "node/2427341078",
  "properties": {
    "version": "1",
    "name": "Balatonfőkajár Községi Könyvtár",
    "amenity": "library",
    "id": "node/2427341078"
  },
  "geometry": {
    "type": "Point",
    "coordinates": [
      18.2121889,
      47.0191925
    ]
  }
},
{
  "type": "Feature",
  "id": "node/2427341079",
  "properties": {
    "version": "1",
    "name": "Balatonfőkajár Polgármesteri Hivatal",
    "amenity": "townhall",
    "id": "node/2427341079"
  },
  "geometry": {
    "type": "Point",
    "coordinates": [
      18.2117822,
      47.0189866
    ]
  }
},
{
  "type": "Feature",
  "id": "node/2429447241",
  "properties": {
    "version": "2",
    "bar": "yes",
    "name": "Tisli bringás pihenő",
    "brand": "Tisli",
    "amenity": "cafe",
    "cuisine": "coffee_shop;sandwich",
    "website": "https://www.facebook.com/tislipaloznak/",
    "capacity": "30",
    "takeaway": "yes",
    "addr:city": "Paloznak",
    "addr:street": "Vörösparti sor",
    "description": "Tisli bringás pihenő - a Balatoni körút mentén Alsóörs és Paloznak kozott. Kávé, tea, üdítők, szörpök, panini, sültkrumpli, fröcss, csapolt sör.",
    "payment:cash": "yes",
    "addr:postcode": "8229",
    "addr:housenumber": "63",
    "air_conditioning": "no",
    "payment:debit_cards": "yes",
    "id": "node/2429447241"
  },
  "geometry": {
    "type": "Point",
    "coordinates": [
      17.9549044,
      46.9769065
    ]
  }
},
{
  "type": "Feature",
  "id": "node/2430584848",
  "properties": {
    "version": "4",
    "bus": "yes",
    "name": "Balatoni utca",
    "highway": "bus_stop",
    "public_transport": "platform",
    "id": "node/2430584848"
  },
  "geometry": {
    "type": "Point",
    "coordinates": [
      20.1708714,
      46.2813761
    ]
  }
},
{
  "type": "Feature",
  "id": "node/2430584849",
  "properties": {
    "version": "4",
    "bus": "yes",
    "name": "Balatoni utca",
    "highway": "bus_stop",
    "public_transport": "platform",
    "id": "node/2430584849"
  },
  "geometry": {
    "type": "Point",
    "coordinates": [
      20.170775,
      46.281435
    ]
  }
},
{
  "type": "Feature",
  "id": "node/2432113071",
  "properties": {
    "version": "3",
    "name": "Balatonfűzfő, Tobruk",
    "highway": "bus_stop",
    "shelter": "yes",
    "id": "node/2432113071"
  },
  "geometry": {
    "type": "Point",
    "coordinates": [
      18.0256082,
      47.0607791
    ]
  }
},
{
  "type": "Feature",
  "id": "node/2432113086",
  "properties": {
    "version": "4",
    "name": "Balatonfűzfő, Szalmássy-telep",
    "highway": "bus_stop",
    "shelter": "yes",
    "id": "node/2432113086"
  },
  "geometry": {
    "type": "Point",
    "coordinates": [
      18.0242125,
      47.0651824
    ]
  }
},
{
  "type": "Feature",
  "id": "node/2432113087",
  "properties": {
    "version": "4",
    "name": "Balatonfűzfő, Szalmássy-telep",
    "highway": "bus_stop",
    "shelter": "no",
    "id": "node/2432113087"
  },
  "geometry": {
    "type": "Point",
    "coordinates": [
      18.0240821,
      47.0653339
    ]
  }
},
{
  "type": "Feature",
  "id": "node/2435085054",
  "properties": {
    "version": "1",
    "name": "Ristorante Balaton In",
    "phone": "+39 095 7916308",
    "amenity": "restaurant",
    "website": "http://www.balatonin.it/",
    "addr:street": "Via Mompilieri",
    "addr:housenumber": "53b",
    "id": "node/2435085054"
  },
  "geometry": {
    "type": "Point",
    "coordinates": [
      15.0274428,
      37.5964292
    ]
  }
},
{
  "type": "Feature",
  "id": "node/2450437699",
  "properties": {
    "version": "5",
    "ele": "110",
    "icao": "LHBK",
    "name": "Balatonkeresztúri repülőtér",
    "source": "http://www.hungaryairport.hu/airport_data.php?id=44",
    "aeroway": "aerodrome",
    "id": "node/2450437699"
  },
  "geometry": {
    "type": "Point",
    "coordinates": [
      17.3979085,
      46.6937193
    ]
  }
},
{
  "type": "Feature",
  "id": "node/2479865803",
  "properties": {
    "version": "7",
    "MCC": "216",
    "MNC": "30; 70",
    "ele": "168",
    "ref": "Bokrosi-hegy",
    "name": "Balatonkeresztúr/Alsóhegy, vízmű - helyi TV adó",
    "source": "http://www.fmdx.hu/transmitters-hng-keszthelyi-tv.htm",
    "gsm:LAC": "77; 120",
    "lte:LAC": "fixme; 3204",
    "lte:eNB": "fixme; 3060",
    "man_made": "tower",
    "operator": "Telekom; Vodafone",
    "umts:LAC": "fixme; 220",
    "umts:RNC": "fixme; 20",
    "addr:city": "Balatonkeresztúr",
    "gsm:cellid": "2351;2352; 30601;30604;30605",
    "lte:cellid": "fixme; 0;1;2",
    "tower:type": "communication",
    "umts:cellid": "fixme; 30601;30602;30603;30604;30605;30606;30607",
    "addr:postcode": "8648",
    "addr:conscriptionnumber": "1352/2",
    "communication:mobile_phone": "gsm;umts",
    "id": "node/2479865803"
  },
  "geometry": {
    "type": "Point",
    "coordinates": [
      17.344277,
      46.6979149
    ]
  }
},
{
  "type": "Feature",
  "id": "node/2503250906",
  "properties": {
    "version": "3",
    "bus": "yes",
    "name": "Balatonmáriafürdő, Bakonyi bolt",
    "highway": "bus_stop",
    "public_transport": "platform",
    "id": "node/2503250906"
  },
  "geometry": {
    "type": "Point",
    "coordinates": [
      17.4263506,
      46.7015124
    ]
  }
},
{
  "type": "Feature",
  "id": "node/2503250907",
  "properties": {
    "version": "3",
    "bus": "yes",
    "name": "Balatonmáriafürdő, Bakonyi bolt",
    "highway": "bus_stop",
    "public_transport": "platform",
    "id": "node/2503250907"
  },
  "geometry": {
    "type": "Point",
    "coordinates": [
      17.4261588,
      46.7016155
    ]
  }
},
{
  "type": "Feature",
  "id": "node/2555573735",
  "properties": {
    "version": "3",
    "name": "Balaton",
    "place": "village",
    "id": "node/2555573735"
  },
  "geometry": {
    "type": "Point",
    "coordinates": [
      123.5436442,
      13.931624
    ]
  }
},
{
  "type": "Feature",
  "id": "node/2565941613",
  "properties": {
    "version": "2",
    "name": "Balaton panzió",
    "tourism": "guest_house",
    "id": "node/2565941613"
  },
  "geometry": {
    "type": "Point",
    "coordinates": [
      17.8898307,
      46.8557274
    ]
  }
},
{
  "type": "Feature",
  "id": "node/2565941621",
  "properties": {
    "version": "3",
    "foot": "yes",
    "name": "Balatonföldvár Vitorláskikötő",
    "barrier": "gate",
    "bicycle": "yes",
    "motor_vehicle": "yes",
    "id": "node/2565941621"
  },
  "geometry": {
    "type": "Point",
    "coordinates": [
      17.8840722,
      46.8556401
    ]
  }
},
{
  "type": "Feature",
  "id": "node/2600905033",
  "properties": {
    "version": "8",
    "MCC": "216",
    "MNC": "01; 03; 30; 70",
    "ref": "Balatonfenyves és Máriafürdő határán",
    "source": "OpenCellID",
    "gsm:LAC": "3321; fixme; 77; 120",
    "lte:LAC": "23215; 101; 770; 3207",
    "lte:eNB": "2346; 40771; 1210; 3289",
    "man_made": "tower",
    "operator": "Telenor; Digi; Telekom; Vodafone",
    "umts:LAC": "4311; none; fixme; 220",
    "umts:RNC": "431; none; fixme; 20",
    "gsm:cellid": "23461;23462;23463;23466;23467;23468; fixme; 2182;2183;2184; 32891;32892;32894;32895",
    "lte:cellid": "6;7;8; 1;2;3;4;5;6; 1;3;6; 0;1",
    "tower:type": "communication",
    "umts:cellid": "23461;23462;23463;23466;23467;23468; none; fixme; 32891;32892;32894;32895;32897;32898",
    "gsm:direction": "90;330;210; fixme; fixme; fixme",
    "communication:mobile_phone": "gsm;umts;lte",
    "id": "node/2600905033"
  },
  "geometry": {
    "type": "Point",
    "coordinates": [
      17.4437066,
      46.6996121
    ]
  }
},
{
  "type": "Feature",
  "id": "node/2601026028",
  "properties": {
    "version": "5",
    "MCC": "216",
    "MNC": "03; 30",
    "ref": "Balatonszentgyörgy M7",
    "source": "OpenCellID",
    "gsm:LAC": "fixme; 77",
    "lte:LAC": "101; fixme",
    "lte:eNB": "31371; fixme",
    "man_made": "tower",
    "operator": "Digi; Telekom",
    "gsm:cellid": "fixme; 2434;2435",
    "lte:cellid": "2;4; fixme",
    "tower:type": "communication",
    "communication:mobile_phone": "gsm;lte",
    "id": "node/2601026028"
  },
  "geometry": {
    "type": "Point",
    "coordinates": [
      17.3280975,
      46.6677556
    ]
  }
},
{
  "type": "Feature",
  "id": "node/2601027026",
  "properties": {
    "version": "4",
    "MCC": "216",
    "MNC": "01",
    "ref": "Balatonberény, 76-os út (Panoráma étterem)",
    "fixme": "gsm:direction",
    "gsm:LAC": "3321",
    "lte:LAC": "23215",
    "lte:eNB": "2947",
    "man_made": "tower",
    "operator": "Telenor",
    "gsm:cellid": "29471;29472;29473;29474;29478",
    "lte:cellid": "6;7",
    "tower:type": "communication",
    "gsm:direction": "120;240;300;60",
    "communication:mobile_phone": "yes",
    "id": "node/2601027026"
  },
  "geometry": {
    "type": "Point",
    "coordinates": [
      17.3295518,
      46.6869885
    ]
  }
},
{
  "type": "Feature",
  "id": "node/2604362683",
  "properties": {
    "version": "2",
    "name": "Balatonibob Szabadidőpark",
    "leisure": "yes",
    "website": "https://balatonibob.hu/",
    "id": "node/2604362683"
  },
  "geometry": {
    "type": "Point",
    "coordinates": [
      18.0262519,
      47.0705153
    ]
  }
},
{
  "type": "Feature",
  "id": "node/2659221195",
  "properties": {
    "version": "3",
    "bus": "yes",
    "name": "Balaton utca",
    "highway": "bus_stop",
    "operator": "Miskolc Városi Közlekedési Zrt.",
    "public_transport": "platform",
    "id": "node/2659221195"
  },
  "geometry": {
    "type": "Point",
    "coordinates": [
      20.8102382,
      48.0900635
    ]
  }
},
{
  "type": "Feature",
  "id": "node/2659221198",
  "properties": {
    "version": "3",
    "bus": "yes",
    "name": "Balaton utca",
    "highway": "bus_stop",
    "operator": "Miskolc Városi Közlekedési Zrt.",
    "public_transport": "platform",
    "id": "node/2659221198"
  },
  "geometry": {
    "type": "Point",
    "coordinates": [
      20.8100339,
      48.0902929
    ]
  }
},
{
  "type": "Feature",
  "id": "node/2659221201",
  "properties": {
    "version": "3",
    "bus": "yes",
    "name": "Balaton utca",
    "highway": "bus_stop",
    "operator": "Miskolc Városi Közlekedési Zrt.",
    "public_transport": "platform",
    "id": "node/2659221201"
  },
  "geometry": {
    "type": "Point",
    "coordinates": [
      20.8103684,
      48.0902963
    ]
  }
},
{
  "type": "Feature",
  "id": "node/2667371261",
  "properties": {
    "version": "1",
    "name": "Balaton",
    "place": "locality",
    "source": "kapor2",
    "import_ref": "kapor_names",
    "id": "node/2667371261"
  },
  "geometry": {
    "type": "Point",
    "coordinates": [
      17.793624,
      48.4183924
    ]
  }
},
{
  "type": "Feature",
  "id": "node/2682131692",
  "properties": {
    "version": "1",
    "name": "Balatonrendes",
    "traffic_sign": "city_limit",
    "id": "node/2682131692"
  },
  "geometry": {
    "type": "Point",
    "coordinates": [
      17.5872293,
      46.827647
    ]
  }
},
{
  "type": "Feature",
  "id": "node/2691033298",
  "properties": {
    "version": "1",
    "name": "Balatonalmádi-Vörösberény",
    "traffic_sign": "city_limit",
    "id": "node/2691033298"
  },
  "geometry": {
    "type": "Point",
    "coordinates": [
      18.0089099,
      47.04261
    ]
  }
},
{
  "type": "Feature",
  "id": "node/2691033302",
  "properties": {
    "version": "1",
    "name": "Balatonalmádi-Vörösberény",
    "traffic_sign": "city_limit",
    "id": "node/2691033302"
  },
  "geometry": {
    "type": "Point",
    "coordinates": [
      18.0021329,
      47.051729
    ]
  }
},
{
  "type": "Feature",
  "id": "node/2719775116",
  "properties": {
    "version": "1",
    "name": "Balaton Nereus szobor",
    "tourism": "artwork",
    "artwork_type": "sculpture",
    "id": "node/2719775116"
  },
  "geometry": {
    "type": "Point",
    "coordinates": [
      18.0290505,
      47.0320991
    ]
  }
},
{
  "type": "Feature",
  "id": "node/2719775120",
  "properties": {
    "version": "4",
    "name": "Balaton bringakörút 0. Km",
    "historic": "memorial",
    "id": "node/2719775120"
  },
  "geometry": {
    "type": "Point",
    "coordinates": [
      18.0221806,
      47.0289904
    ]
  }
},
{
  "type": "Feature",
  "id": "node/2729410150",
  "properties": {
    "version": "3",
    "bus": "yes",
    "name": "Balatonszentgyörgy, Berzsenyi u. 57.",
    "highway": "bus_stop",
    "public_transport": "platform",
    "id": "node/2729410150"
  },
  "geometry": {
    "type": "Point",
    "coordinates": [
      17.2984073,
      46.6913019
    ]
  }
},
{
  "type": "Feature",
  "id": "node/2729410153",
  "properties": {
    "version": "3",
    "bus": "yes",
    "name": "Balatonszentgyörgy, Berzsenyi u. 57.",
    "highway": "bus_stop",
    "public_transport": "platform",
    "id": "node/2729410153"
  },
  "geometry": {
    "type": "Point",
    "coordinates": [
      17.2979312,
      46.6913581
    ]
  }
},
{
  "type": "Feature",
  "id": "node/2831947658",
  "properties": {
    "version": "2",
    "name": "Balatonkenesei hajóállomás",
    "cargo": "passengers",
    "amenity": "ferry_terminal",
    "operator": "Balatoni Hajózási Zrt.",
    "id": "node/2831947658"
  },
  "geometry": {
    "type": "Point",
    "coordinates": [
      18.1105981,
      47.0305906
    ]
  }
},
{
  "type": "Feature",
  "id": "node/2847923690",
  "properties": {
    "version": "1",
    "name": "Balatonfüred",
    "traffic_sign": "city_limit",
    "id": "node/2847923690"
  },
  "geometry": {
    "type": "Point",
    "coordinates": [
      17.864802,
      46.9559054
    ]
  }
},
{
  "type": "Feature",
  "id": "node/2853695245",
  "properties": {
    "version": "2",
    "foot": "no",
    "name": "Magyar Honvédség Balatonfüredi Kardiológiai Rehabilitációs Intézet bejárat",
    "barrier": "lift_gate",
    "bicycle": "no",
    "entrance": "main",
    "id": "node/2853695245"
  },
  "geometry": {
    "type": "Point",
    "coordinates": [
      17.8987487,
      46.9571716
    ]
  }
},
{
  "type": "Feature",
  "id": "node/2894342908",
  "properties": {
    "version": "7",
    "bus": "yes",
    "name": "Balatoni út / Dózsa György út",
    "highway": "bus_stop",
    "ref:bkk": "F04389",
    "operator": "BKV",
    "verified": "no",
    "public_transport": "platform",
    "id": "node/2894342908"
  },
  "geometry": {
    "type": "Point",
    "coordinates": [
      18.9835663,
      47.419206
    ]
  }
},
{
  "type": "Feature",
  "id": "node/2894342909",
  "properties": {
    "version": "6",
    "bus": "yes",
    "name": "Balatoni út / Dózsa György út",
    "highway": "bus_stop",
    "ref:bkk": "F04390",
    "operator": "BKV",
    "verified": "no",
    "public_transport": "platform",
    "id": "node/2894342909"
  },
  "geometry": {
    "type": "Point",
    "coordinates": [
      18.983436,
      47.419409
    ]
  }
},
{
  "type": "Feature",
  "id": "node/2921628733",
  "properties": {
    "version": "7",
    "bus": "yes",
    "name": "Siófok (Balatonszéplak), alsó vasúti megállóhely",
    "highway": "bus_stop",
    "network": "local",
    "shelter": "yes",
    "alt_name": "Balatonszéplak, felső vasúti megállóhely",
    "operator": "DDKK",
    "public_transport": "platform",
    "id": "node/2921628733"
  },
  "geometry": {
    "type": "Point",
    "coordinates": [
      18.0191738,
      46.8978617
    ]
  }
},
{
  "type": "Feature",
  "id": "node/2921628734",
  "properties": {
    "version": "9",
    "bus": "yes",
    "name": "Siófok (Balatonszéplak), alsó vasúti megállóhely",
    "bench": "yes",
    "highway": "bus_stop",
    "network": "local",
    "shelter": "yes",
    "alt_name": "Balatonszéplak, felső vasúti megállóhely",
    "operator": "DDKK",
    "public_transport": "platform",
    "id": "node/2921628734"
  },
  "geometry": {
    "type": "Point",
    "coordinates": [
      18.0174949,
      46.8976308
    ]
  }
},
{
  "type": "Feature",
  "id": "node/2921628740",
  "properties": {
    "version": "5",
    "bus": "yes",
    "name": "Siófok (Balatonszéplak), alsó vasúti megállóhely",
    "highway": "bus_stop",
    "shelter": "yes",
    "operator": "Kapos Volán",
    "public_transport": "platform",
    "id": "node/2921628740"
  },
  "geometry": {
    "type": "Point",
    "coordinates": [
      17.9926055,
      46.8915605
    ]
  }
},